$GPGSV,3,1,12,02,45,219,38,04,26,185,25,07,43,053,28,08,70,118,30*79
$GPGSV,3,2,12,10,58,316,24,13,18,061,,15,11,261,,24,17,316,27*79
$GPGSV,3,3,12,25,24,045,24,26,21,262,17,27,51,054,30,28,07,144,*74
$GPGGA,111131.0,4011.260687,N,00824.609529,W,1,07,1.3,117.5,M,,,,*1E
$GPRMC,111131.0,A,4011.260687,N,00824.609529,W,24.8,140.6,170608,,,A*4D
$GPGSA,A,3,02,04,07,08,10,24,27,,,,,,3.0,1.3,2.6*3C
$GPVTG,140.6,T,,M,24.8,N,45.9,K*65
$GPGSV,3,1,12,02,45,219,38,04,26,185,28,07,43,053,24,08,70,118,31*79
$GPGSV,3,2,12,10,58,316,24,13,18,061,,15,11,261,,24,17,316,26*78
$GPGSV,3,3,12,25,24,045,24,26,21,262,17,27,51,054,29,28,07,144,*7C
$GPGGA,111132.0,4011.254838,N,00824.603454,W,1,07,1.4,117.0,M,,,,*13
$GPRMC,111132.0,A,4011.254838,N,00824.603454,W,27.6,141.4,170608,,,A*4C
$GPGSA,A,3,02,04,07,08,10,24,27,,,,,,2.9,1.4,2.6*33
$GPVTG,141.4,T,,M,27.6,N,51.2,K*65
$GPGSV,3,1,12,02,45,219,38,04,26,185,28,07,43,053,24,08,70,118,31*79
$GPGSV,3,2,12,10,58,316,27,13,18,061,,15,11,261,,24,17,316,26*7B
$GPGSV,3,3,12,25,24,045,24,26,21,262,17,27,51,054,32,28,07,144,*76
$GPGGA,111133.0,4011.247862,N,00824.596378,W,1,07,1.4,116.5,M,,,,*1D
$GPRMC,111133.0,A,4011.247862,N,00824.596378,W,32.3,142.0,170608,,,A*40
$GPGSA,A,3,02,04,07,08,10,24,27,,,,,,3.0,1.4,2.6*3B
$GPVTG,142.0,T,,M,32.3,N,59.8,K*61
$GPGSV,3,1,12,02,45,219,38,04,26,185,25,07,43,053,27,08,70,118,30*76
$GPGSV,3,2,12,10,58,316,24,13,18,061,,15,11,261,,24,17,316,27*79
$GPGSV,3,3,12,25,24,045,22,26,22,262,17,27,51,054,31,28,07,144,*70
$GPGGA,111134.0,4011.240251,N,00824.588548,W,1,07,1.5,116.5,M,,,,*1C
$GPRMC,111134.0,A,4011.240251,N,00824.588548,W,34.6,141.6,170608,,,A*46
$GPGSA,A,3,02,04,07,08,10,24,27,,,,,,3.2,1.5,2.8*36
$GPVTG,141.6,T,,M,34.6,N,64.1,K*60
$GPGSV,3,1,12,02,45,219,38,04,26,185,27,07,43,053,28,08,70,118,30*7B
$GPGSV,3,2,12,10,58,316,27,13,18,061,,15,11,261,,24,17,316,28*75
$GPGSV,3,3,12,25,24,045,24,26,22,262,17,27,51,054,28,28,07,144,*7E
$GPGGA,111135.0,4011.232297,N,00824.580194,W,1,07,1.5,116.0,M,,,,*1A
$GPRMC,111135.0,A,4011.232297,N,00824.580194,W,36.7,140.8,170608,,,A*49
$GPGSA,A,3,02,04,07,08,10,24,27,,,,,,3.2,1.5,2.8*36
$GPVTG,140.8,T,,M,36.7,N,68.0,K*61
$GPGSV,3,1,12,02,45,219,38,04,26,184,26,07,43,053,27,08,70,118,30*74
$GPGSV,3,2,12,10,58,316,27,13,18,061,,15,11,261,,24,17,316,28*75
$GPGSV,3,3,12,25,24,045,24,26,22,262,,27,51,054,26,28,07,144,*76
$GPGGA,111136.0,4011.223916,N,00824.571443,W,1,07,1.5,115.0,M,,,,*19
$GPRMC,111136.0,A,4011.223916,N,00824.571443,W,38.7,140.4,170608,,,A*4B
$GPGSA,A,3,02,04,07,08,10,24,27,,,,,,3.2,1.5,2.8*36
$GPVTG,140.4,T,,M,38.7,N,71.8,K*63
$GPGSV,3,1,12,02,45,219,37,04,26,184,26,07,43,053,29,08,70,118,30*75
$GPGSV,3,2,12,10,58,316,26,13,18,061,,15,11,261,,24,17,316,29*75
$GPGSV,3,3,12,25,24,045,22,26,22,262,,27,51,054,28,28,07,144,*7E
$GPGGA,111137.0,4011.215117,N,00824.562064,W,1,07,1.5,114.0,M,,,,*16
$GPRMC,111137.0,A,4011.215117,N,00824.562064,W,40.5,140.5,170608,,,A*49
$GPGSA,A,3,02,04,07,08,10,24,27,,,,,,3.3,1.5,2.9*36
$GPVTG,140.5,T,,M,40.5,N,75.0,K*63
$GPGSV,3,1,12,02,45,219,38,04,26,184,24,07,43,053,28,08,70,118,30*79
$GPGSV,3,2,12,10,58,316,26,13,18,061,,15,11,261,,24,17,316,28*74
$GPGSV,3,3,12,25,24,045,22,26,22,262,,27,51,054,27,28,07,144,*71
$GPGGA,111138.0,4011.206125,N,00824.552468,W,1,07,1.6,113.5,M,,,,*10
$GPRMC,111138.0,A,4011.206125,N,00824.552468,W,41.4,140.6,170608,,,A*4D
$GPGSA,A,3,02,04,07,08,10,24,27,,,,,,3.5,1.6,3.1*3A
$GPVTG,140.6,T,,M,41.4,N,76.7,K*64
$GPGSV,3,1,12,02,45,219,31,04,26,184,22,07,43,053,27,08,70,118,30*79
$GPGSV,3,2,12,10,58,316,26,13,18,061,,15,11,261,,24,17,316,29*75
$GPGSV,3,3,12,25,24,045,22,26,22,262,,27,51,054,29,28,07,144,*7F
$GPGGA,111139.0,4011.197106,N,00824.542833,W,1,07,1.5,113.0,M,,,,*1E
$GPRMC,111139.0,A,4011.197106,N,00824.542833,W,40.8,140.5,170608,,,A*4B
$GPGSA,A,3,02,04,07,08,10,24,27,,,,,,3.2,1.5,2.8*36
$GPVTG,140.5,T,,M,40.8,N,75.5,K*6B
$GPGSV,3,1,12,02,45,219,34,04,26,184,25,07,43,053,27,08,70,118,30*7B
$GPGSV,3,2,12,10,58,316,26,13,18,061,,15,11,261,,24,17,316,29*75
$GPGSV,3,3,12,25,24,045,22,26,22,262,,27,51,054,28,28,07,144,*7E
$GPGGA,111140.0,4011.188395,N,00824.533438,W,1,07,1.4,112.0,M,,,,*17
$GPRMC,111140.0,A,4011.188395,N,00824.533438,W,39.0,140.2,170608,,,A*43
$GPGSA,A,3,02,04,07,08,10,24,27,,,,,,3.2,1.4,2.8*37
$GPVTG,140.2,T,,M,39.0,N,72.2,K*6A
$GPGSV,3,1,12,02,45,219,38,04,26,184,24,07,43,053,27,08,70,118,25*72
$GPGSV,3,2,12,10,58,316,24,13,18,061,,15,11,261,,24,17,316,29*77
$GPGSV,3,3,12,25,24,045,22,26,22,262,,27,51,054,22,28,07,144,*74
$GPGGA,111141.0,4011.180288,N,00824.524481,W,1,07,1.4,112.0,M,,,,*17
$GPRMC,111141.0,A,4011.180288,N,00824.524481,W,36.5,138.6,170608,,,A*42
$GPGSA,A,3,02,04,07,08,10,24,27,,,,,,3.1,1.4,2.8*34
$GPVTG,138.6,T,,M,36.5,N,67.6,K*6B
$GPGSV,3,1,12,02,45,219,36,04,26,184,20,07,43,053,27,08,70,118,29*74
$GPGSV,3,2,12,10,58,316,24,13,18,061,,15,11,261,,24,17,316,25*7B
$GPGSV,3,3,12,25,24,045,24,26,22,262,,27,51,054,22,28,07,144,*72
$GPGGA,111142.0,4011.173449,N,00824.515836,W,1,07,1.6,111.5,M,,,,*15
$GPRMC,111142.0,A,4011.173449,N,00824.515836,W,33.5,134.4,170608,,,A*4F
$GPGSA,A,3,02,04,07,08,24,255,255,,,,,,3.6,1.6,3.2*3E
$GPVTG,134.4,T,,M,33.5,N,62.0,K*63
$GPGSV,3,1,12,02,45,219,29,04,26,184,20,07,43,053,29,08,70,118,33*7F
$GPGSV,3,2,12,10,58,316,24,13,18,061,,15,11,261,,24,17,316,21*7F
$GPGSV,3,3,12,25,24,045,28,26,22,262,,27,51,054,22,28,07,144,*7E
$GPGGA,111143.0,4011.167341,N,00824.506623,W,1,07,1.5,111.0,M,,,,*10
$GPRMC,111143.0,A,4011.167341,N,00824.506623,W,33.7,128.7,170608,,,A*40
$GPGSA,A,3,02,04,07,08,24,255,255,,,,,,3.1,1.5,2.7*3E
$GPVTG,128.7,T,,M,33.7,N,62.4,K*6B
$GPGSV,3,1,12,02,45,219,32,04,26,184,21,07,43,053,25,08,70,118,30*7B
$GPGSV,3,2,12,10,58,316,21,13,18,063,,15,11,261,,24,17,316,24*7D
$GPGSV,3,3,12,25,24,045,21,26,22,262,,27,51,054,26,28,07,144,*73
$GPGGA,111144.0,4011.162025,N,00824.496680,W,1,07,1.6,111.0,M,,,,*11
$GPRMC,111144.0,A,4011.162025,N,00824.496680,W,33.4,122.3,170608,,,A*4F
$GPGSA,A,3,02,04,07,08,10,24,27,,,,,,3.4,1.6,2.9*32
$GPVTG,122.3,T,,M,33.4,N,61.9,K*68
$GPGSV,3,1,12,02,45,219,34,04,26,184,28,07,43,053,28,08,70,118,22*7A
$GPGSV,3,2,12,10,58,316,26,13,18,063,,15,11,261,,24,17,316,25*7B
$GPGSV,3,3,12,25,24,045,28,26,22,262,,27,51,054,27,28,07,144,*7B
$GPGGA,111145.0,4011.157408,N,00824.486064,W,1,07,1.4,111.0,M,,,,*12
$GPRMC,111145.0,A,4011.157408,N,00824.486064,W,33.6,117.5,170608,,,A*4C
$GPGSA,A,3,02,04,07,08,10,24,27,,,,,,3.2,1.4,2.9*36
$GPVTG,117.5,T,,M,33.6,N,62.1,K*61
$GPGSV,3,1,12,02,45,219,36,04,26,184,31,07,43,053,37,08,70,118,25*79
$GPGSV,3,2,12,10,58,316,25,13,18,063,,15,11,261,,24,17,316,25*78
$GPGSV,3,3,12,25,24,045,30,26,22,262,,27,51,054,27,28,07,144,*72
$GPGGA,111146.0,4011.153500,N,00824.474819,W,1,07,1.4,110.5,M,,,,*17
$GPRMC,111146.0,A,4011.153500,N,00824.474819,W,33.5,112.6,170608,,,A*48
$GPGSA,A,3,02,04,07,08,10,27,255,,,,,,3.3,1.4,2.9*03
$GPVTG,112.6,T,,M,33.5,N,62.1,K*64
$GPGSV,3,1,12,02,45,219,34,04,26,184,30,07,43,053,27,08,70,118,24*7A
$GPGSV,3,2,12,10,58,316,28,13,18,063,,15,11,261,,24,17,316,25*75
$GPGSV,3,3,12,25,24,045,27,26,22,262,,27,51,054,30,28,07,144,*72
$GPGGA,111147.0,4011.150362,N,00824.463714,W,1,07,1.4,110.5,M,,,,*13
$GPRMC,111147.0,A,4011.150362,N,00824.463714,W,31.2,107.9,170608,,,A*42
$GPGSA,A,3,02,04,07,08,10,27,255,,,,,,3.3,1.4,3.0*0B
$GPVTG,107.9,T,,M,31.2,N,57.8,K*65
$GPGSV,3,1,12,02,45,219,33,04,26,184,32,07,43,053,24,08,70,118,25*7D
$GPGSV,3,2,12,10,58,316,28,13,18,063,,15,11,261,,24,17,316,25*75
$GPGSV,3,3,12,25,24,045,25,26,22,262,,27,51,054,29,28,07,144,*78
$GPGGA,111148.0,4011.148009,N,00824.453560,W,1,07,2.3,110.0,M,,,,*18
$GPRMC,111148.0,A,4011.148009,N,00824.453560,W,27.2,106.4,170608,,,A*43
$GPGSA,A,3,02,04,07,08,10,27,255,,,,,,5.6,2.3,5.1*0B
$GPVTG,106.4,T,,M,27.2,N,50.3,K*62
$GPGSV,3,1,12,02,45,219,32,04,26,184,33,07,43,053,27,08,70,118,23*78
$GPGSV,3,2,12,10,58,316,29,13,18,063,,15,11,261,,24,17,316,25*74
$GPGSV,3,3,12,25,24,045,25,26,22,262,,27,51,054,27,28,07,144,*76
$GPGGA,111149.0,4011.146548,N,00824.445655,W,1,07,2.2,110.5,M,,,,*11
$GPRMC,111149.0,A,4011.146548,N,00824.445655,W,20.9,105.0,170608,,,A*45
$GPGSA,A,3,02,04,07,08,10,27,255,,,,,,5.5,2.2,5.0*08
$GPVTG,105.0,T,,M,20.9,N,38.7,K*63
$GPGSV,3,1,12,02,45,219,33,04,26,184,31,07,43,053,26,08,70,118,21*78
$GPGSV,3,2,12,10,58,316,30,13,18,063,,15,11,261,,24,17,316,25*7C
$GPGSV,3,3,12,25,24,045,23,26,22,262,,27,51,054,26,28,07,144,*71
$GPGGA,111150.0,4011.145248,N,00824.439237,W,1,07,2.5,110.5,M,,,,*11
$GPRMC,111150.0,A,4011.145248,N,00824.439237,W,16.7,105.3,170608,,,A*4A
$GPGSA,A,3,02,04,07,08,10,27,255,,,,,,6.3,2.5,5.8*02
$GPVTG,105.3,T,,M,16.7,N,31.0,K*65
$GPGSV,3,1,12,02,45,219,36,04,26,184,28,07,43,053,29,08,70,118,27*7C
$GPGSV,3,2,12,10,58,316,28,13,18,063,,15,11,261,,24,17,316,20*70
$GPGSV,3,3,12,25,24,045,29,26,22,262,,27,51,054,29,28,07,144,*74
$GPGGA,111151.0,4011.143804,N,00824.433937,W,1,07,1.4,110.5,M,,,,*17
$GPRMC,111151.0,A,4011.143804,N,00824.433937,W,14.4,113.4,170608,,,A*4F
$GPGSA,A,3,02,04,07,08,10,24,27,,,,,,3.3,1.4,3.0*3F
$GPVTG,113.4,T,,M,14.4,N,26.6,K*64
$GPGSV,3,1,12,02,45,219,34,04,26,184,24,07,43,053,26,08,70,118,25*7F
$GPGSV,3,2,12,10,58,316,25,13,18,063,,15,11,261,,24,17,316,22*7F
$GPGSV,3,3,12,25,24,045,26,26,22,262,,27,51,054,26,28,07,144,*74
$GPGGA,111152.0,4011.141916,N,00824.429370,W,1,07,1.4,111.0,M,,,,*12
$GPRMC,111152.0,A,4011.141916,N,00824.429370,W,14.2,122.8,170608,,,A*46
$GPGSA,A,3,02,04,07,08,10,24,27,,,,,,3.4,1.4,3.1*39
$GPVTG,122.8,T,,M,14.2,N,26.3,K*69
$GPGSV,3,1,12,02,45,219,36,04,26,184,25,07,43,053,25,08,70,118,26*7C
$GPGSV,3,2,12,10,58,316,23,13,18,063,,15,11,261,,24,17,316,24*7F
$GPGSV,3,3,12,25,24,045,26,26,22,262,,27,51,054,24,28,07,144,*76
$GPGGA,111153.0,4011.139446,N,00824.425427,W,1,07,1.4,111.0,M,,,,*1D
$GPRMC,111153.0,A,4011.139446,N,00824.425427,W,14.2,133.0,170608,,,A*41
$GPGSA,A,3,02,04,07,08,10,24,27,,,,,,3.2,1.4,2.9*36
$GPVTG,133.0,T,,M,14.2,N,26.2,K*60
$GPGSV,3,1,12,02,45,219,33,04,26,184,21,07,43,053,24,08,70,118,27*7D
$GPGSV,3,2,12,10,58,316,22,13,18,063,,15,11,261,,24,17,316,28*72
$GPGSV,3,3,12,25,24,045,24,26,22,262,,27,51,054,24,28,07,144,*74
$GPGGA,111154.0,4011.136424,N,00824.422289,W,1,07,1.6,111.0,M,,,,*16
$GPRMC,111154.0,A,4011.136424,N,00824.422289,W,14.0,147.7,170608,,,A*4E
$GPGSA,A,3,02,04,07,08,10,24,27,,,,,,3.8,1.6,3.4*32
$GPVTG,147.7,T,,M,14.0,N,25.9,K*6E
$GPGSV,3,1,12,02,45,219,30,04,26,184,21,07,43,053,24,08,70,118,28*71
$GPGSV,3,2,12,10,58,316,23,13,18,063,,15,11,261,,24,17,316,27*7C
$GPGSV,3,3,12,25,24,045,26,26,22,262,,27,51,054,22,28,07,144,*70
$GPGGA,111155.0,4011.132632,N,00824.420056,W,1,07,1.4,110.5,M,,,,*12
$GPRMC,111155.0,A,4011.132632,N,00824.420056,W,16.3,159.7,170608,,,A*42
$GPGSA,A,3,02,04,08,10,24,27,255,,,,,,3.1,1.4,2.7*0E
$GPVTG,159.7,T,,M,16.3,N,30.3,K*6E
$GPGSV,3,1,12,02,45,219,31,04,26,184,21,07,43,053,23,08,70,118,25*7A
$GPGSV,3,2,12,10,58,316,28,13,18,063,,15,11,261,,24,17,316,23*73
$GPGSV,3,3,12,25,24,045,27,26,22,262,,27,51,054,22,28,07,144,*71
$GPGGA,111156.0,4011.127862,N,00824.418140,W,1,07,1.4,110.0,M,,,,*16
$GPRMC,111156.0,A,4011.127862,N,00824.418140,W,19.1,164.5,170608,,,A*42
$GPGSA,A,3,02,07,08,10,24,255,255,,,,,,3.1,1.4,2.7*3A
$GPVTG,164.5,T,,M,19.1,N,35.5,K*6C
$GPGSV,3,1,12,02,45,219,31,04,26,184,21,07,43,053,21,08,70,118,24*79
$GPGSV,3,2,12,10,58,316,27,13,18,063,,15,11,261,,24,17,316,24*7B
$GPGSV,3,3,12,25,24,045,27,26,22,262,,27,51,054,22,28,07,144,*71
$GPGGA,111157.0,4011.122292,N,00824.415993,W,1,07,1.3,109.5,M,,,,*16
$GPRMC,111157.0,A,4011.122292,N,00824.415993,W,21.7,163.7,170608,,,A*40
$GPGSA,A,3,02,04,07,08,10,24,255,,,,,,2.9,1.3,2.5*00
$GPVTG,163.7,T,,M,21.7,N,40.2,K*61
$GPGSV,3,1,12,02,45,219,30,04,26,184,21,07,43,053,21,08,70,118,23*7F
$GPGSV,3,2,12,10,58,316,26,13,18,063,,15,11,261,,24,17,316,23*7D
$GPGSV,3,3,12,25,24,045,27,26,22,262,,27,51,054,22,28,07,144,*71
$GPGGA,111158.0,4011.116214,N,00824.413614,W,1,07,1.5,108.5,M,,,,*11
$GPRMC,111158.0,A,4011.116214,N,00824.413614,W,23.1,163.7,170608,,,A*44
$GPGSA,A,3,02,04,07,08,10,24,255,,,,,,3.1,1.5,2.7*0D
$GPVTG,163.7,T,,M,23.1,N,42.9,K*6C
$GPGSV,3,1,12,02,45,219,29,04,26,184,21,07,43,053,20,08,70,118,24*71
$GPGSV,3,2,12,10,58,316,25,13,18,063,,15,11,261,,24,17,316,25*78
$GPGSV,3,3,12,25,24,045,26,26,22,262,,27,51,054,22,28,07,144,*70
$GPGGA,111159.0,4011.110008,N,00824.411295,W,1,07,1.4,108.5,M,,,,*17
$GPRMC,111159.0,A,4011.110008,N,00824.411295,W,23.1,164.2,170608,,,A*41
$GPGSA,A,3,02,04,07,08,10,24,255,,,,,,2.8,1.4,2.4*07
$GPVTG,164.2,T,,M,23.1,N,42.8,K*6F
$GPGSV,3,1,12,02,45,219,27,04,26,184,21,07,43,052,20,08,70,118,24*7E
$GPGSV,3,2,12,10,58,316,25,13,18,063,,15,11,261,,24,17,316,21*7C
$GPGSV,3,3,12,25,24,045,25,26,22,262,,27,51,054,23,28,07,144,*72
$GPGGA,111200.0,4011.104170,N,00824.408992,W,1,07,1.2,108.0,M,,,,*14
$GPRMC,111200.0,A,4011.104170,N,00824.408992,W,20.8,162.8,170608,,,A*47
$GPGSA,A,3,02,04,08,10,24,27,255,,,,,,2.8,1.2,2.5*02
$GPVTG,162.8,T,,M,20.8,N,38.5,K*69
$GPGSV,3,1,12,02,45,219,29,04,26,184,20,07,43,052,20,08,70,118,25*70
$GPGSV,3,2,12,10,58,316,24,13,18,063,,15,11,261,,24,17,316,21*7D
$GPGSV,3,3,12,25,24,045,26,26,22,262,,27,51,054,24,28,07,144,*76
$GPGGA,111201.0,4011.099291,N,00824.407031,W,1,07,1.3,107.5,M,,,,*18
$GPRMC,111201.0,A,4011.099291,N,00824.407031,W,17.0,161.5,170608,,,A*42
$GPGSA,A,3,02,04,07,08,10,27,255,,,,,,2.8,1.3,2.5*02
$GPVTG,161.5,T,,M,17.0,N,31.5,K*62
$GPGSV,3,1,12,02,45,219,24,04,26,184,27,07,43,052,20,08,70,116,25*74
$GPGSV,3,2,12,10,58,316,21,13,18,063,,15,11,261,,24,17,316,22*7B
$GPGSV,3,3,12,25,24,045,24,26,22,262,,27,51,054,20,28,07,144,*70
$GPGGA,111202.0,4011.095688,N,00824.405658,W,1,07,1.2,107.0,M,,,,*14
$GPRMC,111202.0,A,4011.095688,N,00824.405658,W,12.6,162.1,170608,,,A*4E
$GPGSA,A,3,02,04,08,10,24,27,255,,,,,,2.4,1.2,2.1*0A
$GPVTG,162.1,T,,M,12.6,N,23.4,K*64
$GPGSV,3,1,12,02,45,219,33,04,26,184,24,07,43,052,24,08,70,116,25*75
$GPGSV,3,2,12,10,58,316,26,13,18,063,,15,11,261,,24,17,316,23*7D
$GPGSV,3,3,12,25,24,045,23,26,22,262,,27,51,054,26,28,07,144,*71
$GPGGA,111203.0,4011.093339,N,00824.403802,W,1,07,1.2,106.5,M,,,,*1F
$GPRMC,111203.0,A,4011.093339,N,00824.403802,W,9.8,141.4,170608,,,A*71
$GPGSA,A,3,02,04,07,08,10,24,27,,,,,,2.5,1.2,2.2*3D
$GPVTG,141.4,T,,M,9.8,N,18.1,K*59
$GPGSV,3,1,12,02,45,219,32,04,26,184,27,07,43,052,28,08,70,116,28*76
$GPGSV,3,2,12,10,58,316,25,13,18,063,,15,11,261,,24,17,316,20*7D
$GPGSV,3,3,12,25,24,045,25,26,22,262,,27,51,054,26,28,07,144,*77
$GPGGA,111204.0,4011.091519,N,00824.400880,W,1,07,1.2,106.5,M,,,,*17
$GPRMC,111204.0,A,4011.091519,N,00824.400880,W,10.4,121.4,170608,,,A*4B
$GPGSA,A,3,02,04,07,08,10,24,27,,,,,,2.6,1.2,2.2*3E
$GPVTG,121.4,T,,M,10.4,N,19.3,K*68
$GPGSV,3,1,12,02,45,219,29,04,26,184,29,07,43,052,24,08,70,116,25*73
$GPGSV,3,2,12,10,58,316,26,13,18,063,,15,11,261,,24,17,316,20*7E
$GPGSV,3,3,12,25,24,045,24,26,22,262,,27,51,054,26,28,07,144,*76
$GPGGA,111205.0,4011.091016,N,00824.396444,W,1,07,1.2,106.5,M,,,,*10
$GPRMC,111205.0,A,4011.091016,N,00824.396444,W,12.4,94.9,170608,,,A*7C
$GPGSA,A,3,02,04,07,08,10,27,255,,,,,,2.6,1.2,2.3*0B
$GPVTG,94.9,T,,M,12.4,N,23.0,K*52
$GPGSV,3,1,12,02,45,219,29,04,26,184,29,07,43,052,24,08,70,116,24*72
$GPGSV,3,2,12,10,58,316,24,13,18,063,,15,11,261,,24,17,316,20*7C
$GPGSV,3,3,12,25,24,045,22,26,22,262,,27,51,054,26,28,07,144,*70
$GPGGA,111206.0,4011.092142,N,00824.390148,W,1,07,1.2,106.5,M,,,,*1F
$GPRMC,111206.0,A,4011.092142,N,00824.390148,W,17.5,77.0,170608,,,A*73
$GPGSA,A,3,02,07,08,10,27,255,255,,,,,,2.7,1.2,2.4*3B
$GPVTG,77.0,T,,M,17.5,N,32.4,K*56
$GPGSV,3,1,12,02,45,219,29,04,26,184,29,07,43,052,26,08,70,116,21*75
$GPGSV,3,2,12,10,58,316,21,13,18,063,,15,11,261,,24,17,316,24*7D
$GPGSV,3,3,12,25,24,045,23,26,22,262,,27,51,054,26,28,07,144,*71
$GPGGA,111207.0,4011.093440,N,00824.383731,W,1,07,1.2,106.5,M,,,,*12
$GPRMC,111207.0,A,4011.093440,N,00824.383731,W,18.7,75.3,170608,,,A*72
$GPGSA,A,3,07,08,10,24,27,255,255,,,,,,2.6,1.2,2.3*39
$GPVTG,75.3,T,,M,18.7,N,34.6,K*5E
$GPGSV,3,1,12,02,45,219,29,04,26,184,29,07,43,052,30,08,70,116,20*73
$GPGSV,3,2,12,10,58,316,21,13,18,063,,15,11,261,,24,17,316,24*7D
$GPGSV,3,3,12,25,24,045,22,26,22,262,,27,51,054,33,28,07,144,*74
$GPGGA,111208.0,4011.094732,N,00824.376604,W,1,07,1.9,106.0,M,,,,*1F
$GPRMC,111208.0,A,4011.094732,N,00824.376604,W,20.4,77.4,170608,,,A*7C
$GPGSA,A,3,07,08,10,24,27,255,255,,,,,,4.6,1.9,4.1*30
$GPVTG,77.4,T,,M,20.4,N,37.7,K*51
$GPGSV,3,1,12,02,45,219,29,04,26,184,29,07,43,052,29,08,70,116,20*7B
$GPGSV,3,2,12,10,58,316,22,13,18,063,,15,11,261,,24,17,316,23*79
$GPGSV,3,3,12,25,24,045,23,26,22,262,,27,51,054,33,28,07,144,*75
$GPGGA,111209.0,4011.096226,N,00824.368699,W,1,07,4.6,106.0,M,,,,*1D
$GPRMC,111209.0,A,4011.096226,N,00824.368699,W,23.2,77.2,170608,,,A*77
$GPGSA,A,3,07,08,10,24,27,255,255,,,,,,7.1,4.6,5.4*3A
$GPVTG,77.2,T,,M,23.2,N,43.0,K*56
$GPGSV,3,1,12,02,45,219,29,04,26,184,29,07,43,052,32,08,70,116,20*71
$GPGSV,3,2,12,10,58,316,24,13,18,063,,15,11,261,,24,17,316,25*79
$GPGSV,3,3,12,25,24,045,20,26,22,262,,27,51,054,32,28,07,144,*77
$GPGGA,111210.0,4011.097747,N,00824.360209,W,1,07,5.1,106.5,M,,,,*10
$GPRMC,111210.0,A,4011.097747,N,00824.360209,W,24.1,77.2,170608,,,A*7D
$GPGSA,A,3,07,10,24,27,255,255,255,,,,,,7.6,5.1,5.7*02
$GPVTG,77.2,T,,M,24.1,N,44.7,K*52
$GPGSV,3,1,12,02,45,219,29,04,26,184,29,07,43,052,31,08,70,116,20*72
$GPGSV,3,2,12,10,58,316,23,13,18,063,,15,11,261,,24,17,316,24*7F
$GPGSV,3,3,12,25,24,045,20,26,22,262,,27,51,054,32,28,07,144,*77
$GPGGA,111211.0,4011.099140,N,00824.352012,W,1,07,5.7,106.5,M,,,,*11
$GPRMC,111211.0,A,4011.099140,N,00824.352012,W,22.5,76.6,170608,,,A*7D
$GPGSA,A,3,07,10,24,27,255,255,255,,,,,,8.3,5.7,6.0*0A
$GPVTG,76.6,T,,M,22.5,N,41.7,K*50
$GPGSV,3,1,12,02,45,219,29,04,26,184,29,07,43,052,26,08,70,116,20*74
$GPGSV,3,2,12,10,58,316,23,13,18,063,,15,11,261,,24,17,316,25*7E
$GPGSV,3,3,12,25,24,045,20,26,22,262,,27,51,054,26,28,07,144,*72
$GPGGA,111212.0,4011.101190,N,00824.344458,W,1,06,4.3,106.5,M,,,,*16
$GPRMC,111212.0,A,4011.101190,N,00824.344458,W,20.6,71.2,170608,,,A*7C
$GPGSA,A,3,07,08,24,27,255,255,,,,,,,6.6,4.3,4.9*34
$GPVTG,71.2,T,,M,20.6,N,38.1,K*5A
$GPGSV,3,1,12,02,45,219,29,04,26,184,29,07,43,052,25,08,70,116,20*77
$GPGSV,3,2,12,10,58,316,23,13,18,063,,15,11,261,,24,17,316,25*7E
$GPGSV,3,3,12,25,24,045,20,26,22,262,,27,51,054,29,28,07,144,*7D
$GPGGA,111213.0,4011.103093,N,00824.338649,W,1,05,4.5,106.5,M,,,,*1B
$GPRMC,111213.0,A,4011.103093,N,00824.338649,W,16.6,63.9,170608,,,A*79
$GPGSA,A,3,07,24,27,255,255,,,,,,,,6.8,4.5,5.1*3D
$GPVTG,63.9,T,,M,16.6,N,30.8,K*56
$GPGSV,3,1,12,02,45,219,29,04,26,184,29,07,43,052,24,08,70,116,20*76
$GPGSV,3,2,12,10,58,316,23,13,18,063,,15,11,261,,24,17,316,23*78
$GPGSV,3,3,12,25,24,045,20,26,22,262,,27,51,054,28,28,07,144,*7C
$GPGGA,111214.0,4011.104733,N,00824.333887,W,1,05,11.8,106.5,M,,,,*28
$GPRMC,111214.0,A,4011.104733,N,00824.333887,W,14.5,61.1,170608,,,A*78
$GPGSA,A,3,07,24,27,255,255,,,,,,,,23.9,11.8,20.8*0C
$GPVTG,61.1,T,,M,14.5,N,26.9,K*5B
$GPGSV,3,1,12,02,45,219,29,04,26,184,29,07,43,052,22,08,70,116,24*74
$GPGSV,3,2,12,10,58,316,21,13,18,063,,15,11,261,,24,17,316,21*78
$GPGSV,3,3,12,25,24,045,20,26,22,262,,27,51,054,29,28,07,144,*7D
$GPGGA,111215.0,4011.103931,N,00824.330432,W,1,05,3.5,106.0,M,,,,*18
$GPRMC,111215.0,A,4011.103931,N,00824.330432,W,11.7,71.0,170608,,,A*74
$GPGSA,A,3,07,08,10,24,27,,,,,,,,6.5,3.5,5.4*3B
$GPVTG,71.0,T,,M,11.7,N,21.7,K*55
$GPGSV,3,1,12,02,45,219,29,04,26,184,29,07,43,052,22,08,70,116,20*70
$GPGSV,3,2,12,10,58,316,21,13,18,063,,15,11,261,,24,17,316,21*78
$GPGSV,3,3,12,25,24,045,20,26,22,262,,27,51,054,28,28,07,144,17*7A
$GPGGA,111216.0,4011.104698,N,00824.326006,W,1,05,4.0,106.0,M,,,,*16
$GPRMC,111216.0,A,4011.104698,N,00824.326006,W,13.1,76.0,170608,,,A*7B
$GPGSA,A,3,07,08,24,27,255,,,,,,,,6.6,4.0,5.2*0F
$GPVTG,76.0,T,,M,13.1,N,24.3,K*57
$GPGSV,3,1,12,02,45,219,18,04,26,184,29,07,43,052,26,08,70,116,23*75
$GPGSV,3,2,12,10,58,316,21,13,18,063,,15,11,261,,24,17,316,21*78
$GPGSV,3,3,12,25,24,045,20,26,22,262,,27,51,054,30,28,07,144,19*7D
$GPGGA,111217.0,4011.106443,N,00824.320912,W,1,05,4.0,106.0,M,,,,*1B
$GPRMC,111217.0,A,4011.106443,N,00824.320912,W,14.7,71.6,170608,,,A*76
$GPGSA,A,3,07,08,10,24,27,,,,,,,,6.8,4.0,5.4*34
$GPVTG,71.6,T,,M,14.7,N,27.3,K*54
$GPGSV,3,1,12,02,45,219,18,04,26,184,24,07,43,052,27,08,70,116,25*7F
$GPGSV,3,2,12,10,58,316,20,13,18,063,,15,11,261,,24,17,316,21*79
$GPGSV,3,3,12,25,24,045,20,26,22,262,,27,51,054,30,28,07,144,19*7D
$GPGGA,111218.0,4011.108017,N,00824.316028,W,1,05,4.0,106.0,M,,,,*1A
$GPRMC,111218.0,A,4011.108017,N,00824.316028,W,14.3,69.9,170608,,,A*75
$GPGSA,A,3,07,08,10,27,255,,,,,,,,7.0,4.0,5.8*05
$GPVTG,69.9,T,,M,14.3,N,26.5,K*51
$GPGSV,3,1,12,02,45,219,18,04,26,184,28,07,43,052,26,08,70,116,24*73
$GPGSV,3,2,12,10,58,316,21,13,18,063,,15,11,261,,24,17,316,21*78
$GPGSV,3,3,12,25,24,045,20,26,22,262,,27,51,054,31,28,07,144,19*7C
$GPGGA,111219.0,4011.109425,N,00824.311376,W,1,05,4.0,106.0,M,,,,*10
$GPRMC,111219.0,A,4011.109425,N,00824.311376,W,13.6,70.0,170608,,,A*7C
$GPGSA,A,3,07,08,10,27,255,,,,,,,,7.4,4.0,6.1*0B
$GPVTG,70.0,T,,M,13.6,N,25.2,K*56
$GPGSV,3,1,12,02,45,219,18,04,26,184,27,07,43,052,26,08,70,116,24*7C
$GPGSV,3,2,12,10,58,316,21,13,18,063,,15,11,261,,24,17,316,21*78
$GPGSV,3,3,12,25,24,045,20,26,22,262,,27,51,054,31,28,07,144,19*7C
$GPGGA,111220.0,4011.110745,N,00824.306845,W,1,06,2.7,106.0,M,,,,*18
$GPRMC,111220.0,A,4011.110745,N,00824.306845,W,13.5,70.2,170608,,,A*77
$GPGSA,A,3,04,07,08,10,27,255,,,,,,,5.1,2.7,4.2*08
$GPVTG,70.2,T,,M,13.5,N,24.9,K*5D
$GPGSV,3,1,12,02,45,219,27,04,26,184,27,07,43,052,26,08,70,116,25*71
$GPGSV,3,2,12,10,58,316,24,13,18,063,,15,11,261,,24,17,316,21*7D
$GPGSV,3,3,12,25,24,045,20,26,22,262,,27,51,054,30,28,07,144,19*7D
$GPGGA,111221.0,4011.112065,N,00824.302420,W,1,07,2.3,106.5,M,,,,*15
$GPRMC,111221.0,A,4011.112065,N,00824.302420,W,12.9,71.0,170608,,,A*74
$GPGSA,A,3,02,04,07,08,10,27,255,,,,,,4.7,2.3,4.1*0A
$GPVTG,71.0,T,,M,12.9,N,23.8,K*55
$GPGSV,3,1,12,02,45,219,29,04,26,184,32,07,43,052,27,08,70,116,23*7C
$GPGSV,3,2,12,10,58,316,24,13,18,063,,15,11,261,,24,17,316,25*79
$GPGSV,3,3,12,25,24,045,20,26,22,262,,27,51,054,29,28,07,144,19*75
$GPGGA,111222.0,4011.113428,N,00824.297838,W,1,07,1.2,106.5,M,,,,*10
$GPRMC,111222.0,A,4011.113428,N,00824.297838,W,12.1,73.2,170608,,,A*7B
$GPGSA,A,3,02,04,07,08,10,24,27,,,,,,2.7,1.2,2.4*39
$GPVTG,73.2,T,,M,12.1,N,22.4,K*50
$GPGSV,3,1,12,02,45,219,30,04,26,184,32,07,42,052,24,08,70,116,23*76
$GPGSV,3,2,12,10,58,316,24,13,18,063,,15,11,261,,24,17,316,25*79
$GPGSV,3,3,12,25,24,045,20,26,22,262,,27,51,054,28,28,07,144,19*74
$GPGGA,111223.0,4011.114628,N,00824.293865,W,1,07,1.2,107.0,M,,,,*1C
$GPRMC,111223.0,A,4011.114628,N,00824.293865,W,10.8,73.9,170608,,,A*73
$GPGSA,A,3,02,04,07,08,27,255,255,,,,,,2.5,1.2,2.2*3A
$GPVTG,73.9,T,,M,10.8,N,20.0,K*56
$GPGSV,3,1,12,02,45,219,29,04,26,184,31,07,42,052,25,08,70,116,24*7B
$GPGSV,3,2,12,10,58,316,24,13,18,063,,15,11,261,,24,17,316,25*79
$GPGSV,3,3,12,25,24,045,20,26,22,262,,27,51,054,28,28,07,144,19*74
$GPGGA,111224.0,4011.115309,N,00824.290345,W,1,07,1.2,106.5,M,,,,*12
$GPRMC,111224.0,A,4011.115309,N,00824.290345,W,9.3,74.9,170608,,,A*4D
$GPGSA,A,3,02,04,07,08,27,255,255,,,,,,2.6,1.2,2.3*38
$GPVTG,74.9,T,,M,9.3,N,17.2,K*64
$GPGSV,3,1,12,02,45,219,29,04,26,184,29,07,42,052,22,08,70,116,24*75
$GPGSV,3,2,12,10,58,316,24,13,18,063,,15,11,261,,24,17,316,25*79
$GPGSV,3,3,12,25,24,045,20,26,22,262,,27,51,054,27,28,07,144,19*7B
$GPGGA,111225.0,4011.116131,N,00824.287362,W,1,08,2.8,107.0,M,,,,*18
$GPRMC,111225.0,A,4011.116131,N,00824.287362,W,8.4,72.9,170608,,,A*45
$GPGSA,A,3,02,04,07,08,27,28,255,255,,,,,5.1,2.8,4.2*3C
$GPVTG,72.9,T,,M,8.4,N,15.5,K*61
$GPGSV,3,1,12,02,45,219,27,04,26,184,27,07,42,052,21,08,70,116,25*77
$GPGSV,3,2,12,10,58,316,24,13,18,063,26,15,11,261,,24,17,316,25*7D
$GPGSV,3,3,12,25,24,045,20,26,22,262,,27,51,054,30,28,07,144,19*7D
$GPGGA,111226.0,4011.117160,N,00824.284279,W,1,08,2.7,107.0,M,,,,*19
$GPRMC,111226.0,A,4011.117160,N,00824.284279,W,10.0,64.4,170608,,,A*7C
$GPGSA,A,3,02,04,07,08,27,255,255,255,,,,,4.6,2.7,3.7*0F
$GPVTG,64.4,T,,M,10.0,N,18.6,K*58
$GPGSV,3,1,12,02,45,219,26,04,26,184,26,07,42,052,21,08,70,116,29*7B
$GPGSV,3,2,12,10,58,316,24,13,18,063,21,15,11,261,,24,17,316,25*7A
$GPGSV,3,3,12,25,24,045,20,26,22,262,,27,51,054,28,28,07,144,19*74
$GPGGA,111227.0,4011.118533,N,00824.280457,W,1,09,2.2,106.5,M,,,,*1B
$GPRMC,111227.0,A,4011.118533,N,00824.280457,W,12.5,63.0,170608,,,A*7A
$GPGSA,A,3,02,04,07,08,13,27,255,255,255,,,,3.3,2.2,2.4*08
$GPVTG,63.0,T,,M,12.5,N,23.1,K*53
$GPGSV,3,1,12,02,45,219,33,04,26,184,33,07,42,052,22,08,70,116,25*74
$GPGSV,3,2,12,10,58,316,21,13,18,063,27,15,11,261,,24,17,316,25*79
$GPGSV,3,3,12,25,24,045,20,26,22,262,,27,51,054,29,28,07,144,19*75
$GPGGA,111228.0,4011.119747,N,00824.275257,W,1,09,1.9,107.0,M,,,,*14
$GPRMC,111228.0,A,4011.119747,N,00824.275257,W,15.1,72.2,170608,,,A*78
$GPGSA,A,3,02,04,07,08,10,13,27,255,255,,,,3.1,1.9,2.5*30
$GPVTG,72.2,T,,M,15.1,N,28.0,K*58
$GPGSV,3,1,10,02,,,34,04,,,30,07,,,22,08,,,25*70
$GPGSV,3,2,10,10,,,21,13,,,24,24,,,25,25,,,20*7B
$GPGSV,3,3,10,27,,,30,28,,,19*7C
$GPGGA,111229.0,4011.120982,N,00824.269479,W,1,08,2.0,107.0,M,,,,*14
$GPRMC,111229.0,A,4011.120982,N,00824.269479,W,16.2,76.3,170608,,,A*76
$GPGSA,A,3,02,04,08,13,27,255,255,255,,,,,3.3,2.0,2.6*0F
$GPVTG,76.3,T,,M,16.2,N,29.9,K*55
$GPGSV,3,1,12,02,45,219,33,04,26,184,27,07,42,052,22,08,70,116,26*72
$GPGSV,3,2,12,10,58,316,21,13,18,063,22,15,11,261,,24,17,316,25*7C
$GPGSV,3,3,12,25,24,045,20,26,22,262,,27,51,054,29,28,07,144,19*75
$GPGGA,111230.0,4011.121920,N,00824.263937,W,1,08,2.0,107.0,M,,,,*18
$GPRMC,111230.0,A,4011.121920,N,00824.263937,W,15.1,78.7,170608,,,A*70
$GPGSA,A,3,02,04,08,13,27,255,255,255,,,,,3.4,2.0,2.7*09
$GPVTG,78.7,T,,M,15.1,N,28.0,K*57
$GPGSV,3,1,12,02,45,219,34,04,26,184,30,07,42,052,22,08,70,116,25*70
$GPGSV,3,2,12,10,58,316,26,13,18,063,21,15,11,261,,24,17,316,25*78
$GPGSV,3,3,12,25,24,045,,26,22,262,17,27,51,054,29,28,07,144,19*71
$GPGGA,111231.0,4011.122767,N,00824.258973,W,1,08,1.9,107.0,M,,,,*15
$GPRMC,111231.0,A,4011.122767,N,00824.258973,W,13.6,78.3,170608,,,A*72
$GPGSA,A,3,02,04,08,10,13,27,255,255,,,,,4.0,1.9,3.5*30
$GPVTG,78.3,T,,M,13.6,N,25.1,K*5E
$GPGSV,3,1,12,02,45,219,34,04,26,184,31,07,42,052,22,08,70,116,25*71
$GPGSV,3,2,12,10,58,316,28,13,18,063,23,15,11,261,,24,17,316,25*74
$GPGSV,3,3,12,25,24,045,,26,22,262,16,27,51,054,28,28,07,144,19*71
$GPGGA,111232.0,4011.123675,N,00824.254517,W,1,07,1.9,107.0,M,,,,*18
$GPRMC,111232.0,A,4011.123675,N,00824.254517,W,12.3,77.8,170608,,,A*70
$GPGSA,A,3,02,04,08,10,13,27,255,,,,,,4.0,1.9,3.5*02
$GPVTG,77.8,T,,M,12.3,N,22.8,K*50
$GPGSV,3,1,12,02,45,219,33,04,26,184,32,07,42,052,22,08,70,116,24*74
$GPGSV,3,2,12,10,58,316,28,13,18,063,26,15,11,261,,24,17,316,25*71
$GPGSV,3,3,12,25,24,045,,26,22,262,16,27,51,054,28,28,07,144,19*71
$GPGGA,111233.0,4011.124357,N,00824.250217,W,1,07,1.9,107.0,M,,,,*18
$GPRMC,111233.0,A,4011.124357,N,00824.250217,W,11.5,76.7,170608,,,A*7B
$GPGSA,A,3,02,04,08,10,13,27,255,,,,,,4.0,1.9,3.5*02
$GPVTG,76.7,T,,M,11.5,N,21.3,K*53
$GPGSV,3,1,12,02,45,219,30,04,26,184,32,07,42,052,23,08,70,116,22*70
$GPGSV,3,2,12,10,58,316,20,13,18,063,28,15,11,261,,24,17,316,25*77
$GPGSV,3,3,12,25,24,045,,26,22,262,16,27,51,054,28,28,07,144,19*71
$GPGGA,111234.0,4011.125149,N,00824.246324,W,1,07,2.2,107.5,M,,,,*18
$GPRMC,111234.0,A,4011.125149,N,00824.246324,W,10.4,73.8,170608,,,A*7C
$GPGSA,A,3,02,04,07,08,10,13,27,,,,,,4.0,2.2,3.3*39
$GPVTG,73.8,T,,M,10.4,N,19.3,K*52
$GPGSV,3,1,12,02,45,219,29,04,26,184,32,07,42,052,20,08,70,116,23*7A
$GPGSV,3,2,12,10,58,316,21,13,18,063,29,15,11,261,,24,17,316,25*77
$GPGSV,3,3,12,25,24,045,,26,22,262,16,27,51,054,26,28,07,144,19*7F
$GPGGA,111235.0,4011.125858,N,00824.242784,W,1,07,2.1,107.0,M,,,,*1C
$GPRMC,111235.0,A,4011.125858,N,00824.242784,W,10.0,72.8,170608,,,A*7B
$GPGSA,A,3,02,04,07,08,10,13,27,,,,,,3.6,2.1,2.9*30
$GPVTG,72.8,T,,M,10.0,N,18.6,K*53
$GPGSV,3,1,12,02,45,219,29,04,26,184,33,07,42,052,20,08,70,116,20*78
$GPGSV,3,2,12,10,58,316,21,13,18,063,30,15,11,261,,24,17,316,25*7F
$GPGSV,3,3,12,25,24,045,,26,22,262,16,27,51,054,24,28,07,144,19*7D
$GPGGA,111236.0,4011.126848,N,00824.238982,W,1,07,2.2,107.5,M,,,,*1E
$GPRMC,111236.0,A,4011.126848,N,00824.238982,W,11.6,72.7,170608,,,A*77
$GPGSA,A,3,02,04,08,10,13,27,255,,,,,,4.0,2.2,3.3*0C
$GPVTG,72.7,T,,M,11.6,N,21.5,K*52
$GPGSV,3,1,12,02,45,219,27,04,26,184,31,07,42,052,20,08,70,116,20*74
$GPGSV,3,2,12,10,58,316,22,13,18,063,30,15,11,261,,24,17,316,25*7C
$GPGSV,3,3,12,25,24,045,,26,22,262,16,27,51,054,27,28,07,144,19*7E
$GPGGA,111237.0,4011.127796,N,00824.234813,W,1,07,2.2,107.5,M,,,,*17
$GPRMC,111237.0,A,4011.127796,N,00824.234813,W,12.7,72.0,170608,,,A*7B
$GPGSA,A,3,02,04,07,10,13,27,255,,,,,,3.8,2.2,3.1*0E
$GPVTG,72.0,T,,M,12.7,N,23.5,K*55
$GPGSV,3,1,12,02,45,219,27,04,26,184,29,07,42,052,20,08,71,116,20*7C
$GPGSV,3,2,12,10,58,316,22,13,18,063,30,15,11,261,,24,17,316,25*7C
$GPGSV,3,3,12,25,24,045,,26,22,262,16,27,51,054,25,28,07,144,19*7C
$GPGGA,111238.0,4011.129061,N,00824.230126,W,1,07,2.2,107.5,M,,,,*12
$GPRMC,111238.0,A,4011.129061,N,00824.230126,W,14.1,70.2,170608,,,A*7E
$GPGSA,A,3,02,04,13,27,255,255,255,,,,,,3.7,2.2,2.9*0E
$GPVTG,70.2,T,,M,14.1,N,26.2,K*57
$GPGSV,3,1,12,02,45,219,26,04,26,184,28,07,42,052,23,08,71,116,20*7F
$GPGSV,3,2,12,10,58,316,22,13,18,063,28,15,11,261,,24,17,316,17*74
$GPGSV,3,3,12,25,24,045,,26,22,262,16,27,51,054,29,28,07,144,19*70
$GPGGA,111239.0,4011.130658,N,00824.224669,W,1,07,2.8,107.5,M,,,,*14
$GPRMC,111239.0,A,4011.130658,N,00824.224669,W,16.9,67.7,170608,,,A*7B
$GPGSA,A,3,02,04,07,13,27,255,255,,,,,,4.6,2.8,3.6*39
$GPVTG,67.7,T,,M,16.9,N,31.3,K*59
$GPGSV,3,1,12,02,45,219,25,04,26,184,28,07,42,052,25,08,71,116,20*7A
$GPGSV,3,2,12,10,58,316,22,13,18,063,27,15,11,261,,24,17,316,23*7C
$GPGSV,3,3,12,25,24,045,,26,22,262,16,27,51,054,30,28,07,144,19*78
$GPGGA,111240.0,4011.132622,N,00824.218347,W,1,07,4.1,107.5,M,,,,*1C
$GPRMC,111240.0,A,4011.132622,N,00824.218347,W,19.7,66.1,170608,,,A*7A
$GPGSA,A,3,02,07,13,27,255,255,255,,,,,,5.8,4.1,4.1*0F
$GPVTG,66.1,T,,M,19.7,N,36.4,K*5F
$GPGSV,3,1,12,02,45,219,25,04,26,184,20,07,42,052,24,08,71,116,20*73
$GPGSV,3,2,12,10,58,316,22,13,18,063,28,15,11,261,,24,17,316,23*73
$GPGSV,3,3,12,25,24,045,,26,22,262,16,27,51,054,29,28,07,144,19*70
$GPGGA,111241.0,4011.134405,N,00824.211141,W,1,08,1.5,107.5,M,,,,*1F
$GPRMC,111241.0,A,4011.134405,N,00824.211141,W,20.3,68.9,170608,,,A*7F
$GPGSA,A,3,02,04,07,13,24,27,255,255,,,,,2.5,1.5,1.9*39
$GPVTG,68.9,T,,M,20.3,N,37.6,K*54
$GPGSV,3,1,12,02,45,219,25,04,26,184,23,07,42,052,25,08,71,116,23*72
$GPGSV,3,2,12,10,58,316,23,13,18,063,27,15,11,261,,24,17,316,23*7D
$GPGSV,3,3,12,25,24,045,,26,22,262,16,27,51,054,26,28,07,144,19*7F
$GPGGA,111242.0,4011.136303,N,00824.204205,W,1,08,1.2,108.0,M,,,,*15
$GPRMC,111242.0,A,4011.136303,N,00824.204205,W,20.2,71.0,170608,,,A*78
$GPGSA,A,3,02,04,07,08,10,13,27,255,,,,,2.0,1.2,1.5*0A
$GPVTG,71.0,T,,M,20.2,N,37.4,K*56
$GPGSV,3,1,12,02,45,219,27,04,26,184,27,07,42,052,23,08,71,116,25*74
$GPGSV,3,2,12,10,58,316,24,13,18,063,29,15,11,261,,24,17,316,23*74
$GPGSV,3,3,12,25,24,045,,26,22,262,16,27,51,054,28,28,07,144,19*71
$GPGGA,111243.0,4011.138096,N,00824.197270,W,1,08,1.3,108.0,M,,,,*1F
$GPRMC,111243.0,A,4011.138096,N,00824.197270,W,20.2,71.8,170608,,,A*7B
$GPGSA,A,3,02,04,07,08,10,13,27,255,,,,,2.0,1.3,1.6*08
$GPVTG,71.8,T,,M,20.2,N,37.5,K*5F
$GPGSV,3,1,12,02,45,219,31,04,26,184,31,07,42,052,23,08,71,116,21*70
$GPGSV,3,2,12,10,58,316,24,13,18,063,29,15,11,261,,24,17,316,21*76
$GPGSV,3,3,12,25,24,045,,26,22,262,16,27,51,054,24,28,07,144,19*7D
$GPGGA,111244.0,4011.139854,N,00824.190174,W,1,08,1.1,108.5,M,,,,*18
$GPRMC,111244.0,A,4011.139854,N,00824.190174,W,20.4,73.0,170608,,,A*77
$GPGSA,A,3,02,04,07,08,13,24,27,255,,,,,2.0,1.1,1.6*0D
$GPVTG,73.0,T,,M,20.4,N,37.7,K*51
$GPGSV,3,1,12,02,45,219,33,04,26,184,30,07,42,052,22,08,71,116,23*70
$GPGSV,3,2,12,10,58,316,24,13,18,063,27,15,11,262,,24,17,316,24*7E
$GPGSV,3,3,12,25,24,045,,26,22,262,16,27,51,054,31,28,07,144,19*79
$GPGGA,111245.0,4011.141619,N,00824.182877,W,1,08,1.1,108.5,M,,,,*18
$GPRMC,111245.0,A,4011.141619,N,00824.182877,W,20.7,72.8,170608,,,A*7D
$GPGSA,A,3,02,04,07,08,13,24,27,255,,,,,2.0,1.1,1.6*0D
$GPVTG,72.8,T,,M,20.7,N,38.3,K*50
$GPGSV,3,1,12,02,45,219,33,04,26,184,31,07,42,052,24,08,71,116,22*76
$GPGSV,3,2,12,10,58,316,22,13,18,063,27,15,11,262,,24,17,316,24*78
$GPGSV,3,3,12,25,24,045,,26,22,262,16,27,51,054,31,28,07,144,*71
$GPGGA,111246.0,4011.143555,N,00824.175368,W,1,08,1.1,109.0,M,,,,*1B
$GPRMC,111246.0,A,4011.143555,N,00824.175368,W,23.0,73.0,170608,,,A*77
$GPGSA,A,3,02,04,07,08,10,13,24,27,,,,,2.0,1.1,1.7*3F
$GPVTG,73.0,T,,M,23.0,N,42.7,K*54
$GPGSV,3,1,12,02,45,219,34,04,26,184,30,07,42,052,23,08,71,116,24*71
$GPGSV,3,2,12,10,58,316,23,13,18,063,28,15,11,262,,24,17,316,22*70
$GPGSV,3,3,12,25,24,045,,26,22,262,16,27,51,054,30,28,07,144,*70
$GPGGA,111247.0,4011.145688,N,00824.166673,W,1,08,1.1,108.5,M,,,,*16
$GPRMC,111247.0,A,4011.145688,N,00824.166673,W,26.4,72.8,170608,,,A*76
$GPGSA,A,3,02,04,07,08,10,13,24,27,,,,,2.1,1.1,1.7*3E
$GPVTG,72.8,T,,M,26.4,N,48.9,K*58
$GPGSV,3,1,12,02,45,219,32,04,26,184,31,07,42,052,23,08,71,116,26*74
$GPGSV,3,2,12,10,58,316,22,13,18,063,30,15,11,262,,24,17,316,22*78
$GPGSV,3,3,12,25,24,045,,26,22,262,16,27,51,054,28,28,07,144,*79
$GPGGA,111248.0,4011.147845,N,00824.156987,W,1,08,1.2,108.5,M,,,,*10
$GPRMC,111248.0,A,4011.147845,N,00824.156987,W,28.4,72.4,170608,,,A*71
$GPGSA,A,3,02,04,07,08,10,13,27,255,,,,,2.1,1.2,1.7*09
$GPVTG,72.4,T,,M,28.4,N,52.6,K*5E
$GPGSV,3,1,12,02,45,219,32,04,26,184,32,07,42,052,22,08,71,116,27*77
$GPGSV,3,2,12,10,58,316,20,13,18,063,30,15,11,262,,24,17,316,22*7A
$GPGSV,3,3,12,25,24,045,,26,22,262,16,27,51,054,28,28,07,144,*79
$GPGGA,111249.0,4011.150083,N,00824.147069,W,1,08,1.2,108.5,M,,,,*1C
$GPRMC,111249.0,A,4011.150083,N,00824.147069,W,27.7,72.8,170608,,,A*7D
$GPGSA,A,3,02,04,07,08,10,13,27,255,,,,,2.1,1.2,1.7*09
$GPVTG,72.8,T,,M,27.7,N,51.2,K*59
$GPGSV,3,1,12,02,45,219,30,04,26,184,30,07,42,052,24,08,71,116,27*71
$GPGSV,3,2,12,10,58,316,20,13,18,063,24,15,11,262,,24,17,316,22*7F
$GPGSV,3,3,12,25,24,045,,26,22,262,16,27,51,054,28,28,07,144,*79
$GPGGA,111250.0,4011.152273,N,00824.137615,W,1,08,2.1,109.0,M,,,,*15
$GPRMC,111250.0,A,4011.152273,N,00824.137615,W,26.4,73.4,170608,,,A*7F
$GPGSA,A,3,02,04,07,08,13,27,255,255,,,,,3.4,2.1,2.7*3D
$GPVTG,73.4,T,,M,26.4,N,49.0,K*5D
$GPGSV,3,1,12,02,45,219,24,04,26,184,23,07,42,052,26,08,71,116,21*72
$GPGSV,3,2,12,10,58,316,23,13,18,063,24,15,11,262,,24,17,316,24*7A
$GPGSV,3,3,12,25,24,045,,26,22,262,16,27,51,054,31,28,07,144,*71
$GPGGA,111251.0,4011.154743,N,00824.129216,W,1,08,1.0,109.0,M,,,,*1E
$GPRMC,111251.0,A,4011.154743,N,00824.129216,W,24.0,68.3,170608,,,A*7D
$GPGSA,A,3,02,04,07,08,10,24,27,255,,,,,1.9,1.0,1.6*05
$GPVTG,68.3,T,,M,24.0,N,44.5,K*5E
$GPGSV,3,1,12,02,45,219,28,04,26,184,27,07,42,052,24,08,71,116,21*78
$GPGSV,3,2,12,10,58,316,24,13,18,063,24,15,11,262,,24,17,316,26*7F
$GPGSV,3,3,12,25,24,045,,26,22,262,16,27,51,054,29,28,07,144,*78
$GPGGA,111252.0,4011.157753,N,00824.121833,W,1,08,1.0,109.0,M,,,,*1A
$GPRMC,111252.0,A,4011.157753,N,00824.121833,W,22.5,59.3,170608,,,A*78
$GPGSA,A,3,02,04,07,08,10,24,27,255,,,,,2.0,1.0,1.7*0E
$GPVTG,59.3,T,,M,22.5,N,41.7,K*58
$GPGSV,3,1,12,02,45,219,28,04,26,184,25,07,42,052,33,08,71,116,23*7E
$GPGSV,3,2,12,10,58,316,25,13,18,063,24,15,11,262,,24,17,316,24*7C
$GPGSV,3,3,12,25,24,045,,26,22,262,,27,51,054,33,28,08,144,*7B
$GPGGA,111253.0,4011.161389,N,00824.115366,W,1,08,1.2,109.0,M,,,,*13
$GPRMC,111253.0,A,4011.161389,N,00824.115366,W,21.4,50.8,170608,,,A*73
$GPGSA,A,3,02,04,07,08,10,24,27,255,,,,,2.8,1.2,2.5*05
$GPVTG,50.8,T,,M,21.4,N,39.6,K*56
$GPGSV,3,1,12,02,45,219,25,04,26,184,26,07,42,052,33,08,71,116,23*70
$GPGSV,3,2,12,10,59,316,27,13,18,063,24,15,11,262,,24,17,316,27*7C
$GPGSV,3,3,12,25,24,045,,26,22,262,,27,51,054,32,28,08,144,*7A
$GPGGA,111254.0,4011.165749,N,00824.110291,W,1,08,1.2,109.0,M,,,,*14
$GPRMC,111254.0,A,4011.165749,N,00824.110291,W,21.1,40.5,170608,,,A*7D
$GPGSA,A,3,02,04,07,10,24,27,255,255,,,,,2.8,1.2,2.5*3F
$GPVTG,40.5,T,,M,21.1,N,39.0,K*59
$GPGSV,3,1,12,02,45,219,23,04,26,184,26,07,42,052,34,08,71,116,23*71
$GPGSV,3,2,12,10,59,316,28,13,18,063,20,15,11,262,,24,17,316,24*74
$GPGSV,3,3,12,25,24,045,,26,22,262,,27,51,054,35,28,08,144,*7D
$GPGGA,111255.0,4011.170381,N,00824.105810,W,1,08,1.1,109.0,M,,,,*15
$GPRMC,111255.0,A,4011.170381,N,00824.105810,W,20.8,35.8,170608,,,A*78
$GPGSA,A,3,02,07,08,10,13,24,27,255,,,,,2.3,1.1,2.0*0E
$GPVTG,35.8,T,,M,20.8,N,38.4,K*5B
$GPGSV,3,1,12,02,45,219,21,04,26,184,26,07,42,052,34,08,71,116,23*73
$GPGSV,3,2,12,10,59,316,25,13,18,063,20,15,11,262,,24,17,316,23*7E
$GPGSV,3,3,12,25,24,045,,26,22,262,,27,51,054,27,28,08,144,*7E
$GPGGA,111256.0,4011.175370,N,00824.102028,W,1,08,1.1,109.0,M,,,,*19
$GPRMC,111256.0,A,4011.175370,N,00824.102028,W,20.6,27.4,170608,,,A*75
$GPGSA,A,3,02,07,08,10,24,27,255,255,,,,,2.2,1.1,1.9*35
$GPVTG,27.4,T,,M,20.6,N,38.2,K*5C
$GPGSV,3,1,12,02,45,219,21,04,26,184,26,07,42,052,29,08,71,116,21*7D
$GPGSV,3,2,12,10,59,316,28,13,18,063,23,15,11,262,,24,17,316,21*72
$GPGSV,3,3,12,25,24,045,,26,22,262,,27,50,054,29,28,08,144,*71
$GPGGA,111257.0,4011.180696,N,00824.099438,W,1,08,1.8,109.0,M,,,,*10
$GPRMC,111257.0,A,4011.180696,N,00824.099438,W,20.2,17.1,170608,,,A*77
$GPGSA,A,3,07,08,10,13,24,27,255,255,,,,,3.1,1.8,2.4*30
$GPVTG,17.1,T,,M,20.2,N,37.5,K*56
$GPGSV,3,1,12,02,45,219,25,04,26,184,26,07,42,052,28,08,71,116,21*78
$GPGSV,3,2,12,10,59,316,25,13,18,063,23,15,11,262,,24,17,316,20*7E
$GPGSV,3,3,12,25,24,045,,26,22,262,,27,50,054,27,28,08,144,*7F
$GPGGA,111258.0,4011.187035,N,00824.098805,W,1,08,1.6,109.0,M,,,,*1A
$GPRMC,111258.0,A,4011.187035,N,00824.098805,W,22.2,2.7,170608,,,A*43
$GPGSA,A,3,02,07,10,24,27,255,255,255,,,,,2.9,1.6,2.4*0D
$GPVTG,2.7,T,,M,22.2,N,41.0,K*62
$GPGSV,3,1,12,02,45,219,25,04,26,184,22,07,42,052,30,08,71,115,28*7F
$GPGSV,3,2,12,10,59,316,28,13,18,063,24,15,11,262,,24,17,316,20*74
$GPGSV,3,3,12,25,23,045,,26,22,262,,27,50,054,27,28,08,144,*78
$GPGGA,111259.0,4011.193917,N,00824.100147,W,1,08,1.2,109.5,M,,,,*19
$GPRMC,111259.0,A,4011.193917,N,00824.100147,W,23.7,349.6,170608,,,A*48
$GPGSA,A,3,04,07,08,10,13,24,27,255,,,,,2.3,1.2,2.0*0B
$GPVTG,349.6,T,,M,23.7,N,43.9,K*60
$GPGSV,3,1,12,02,45,219,25,04,26,184,24,07,42,052,30,08,71,115,26*77
$GPGSV,3,2,12,10,59,316,30,13,18,063,26,15,11,262,,24,17,316,20*7F
$GPGSV,3,3,12,25,23,045,,26,22,262,,27,50,054,28,28,08,144,*77
$GPGGA,111300.0,4011.200618,N,00824.102833,W,1,08,1.2,109.5,M,,,,*15
$GPRMC,111300.0,A,4011.200618,N,00824.102833,W,24.9,341.3,170608,,,A*40
$GPGSA,A,3,04,07,08,10,13,27,255,255,,,,,2.3,1.2,1.9*35
$GPVTG,341.3,T,,M,24.9,N,46.1,K*69
$GPGSV,3,1,12,02,45,219,24,04,26,184,21,07,42,052,30,08,71,115,28*7D
$GPGSV,3,2,12,10,59,316,32,13,18,063,22,15,11,262,,24,17,316,20*79
$GPGSV,3,3,12,25,23,045,,26,22,262,,27,50,054,29,28,08,144,*76
$GPGGA,111301.0,4011.207501,N,00824.106343,W,1,08,1.2,109.5,M,,,,*10
$GPRMC,111301.0,A,4011.207501,N,00824.106343,W,26.3,338.2,170608,,,A*42
$GPGSA,A,3,02,04,07,08,10,13,27,255,,,,,2.5,1.2,2.2*0B
$GPVTG,338.2,T,,M,26.3,N,48.6,K*67
$GPGSV,3,1,12,02,45,219,23,04,26,184,26,07,42,052,28,08,71,115,28*74
$GPGSV,3,2,12,10,59,316,31,13,18,063,24,15,11,262,,24,17,316,20*7C
$GPGSV,3,3,12,25,23,045,,26,22,262,,27,50,054,29,28,08,144,*76
$GPGGA,111302.0,4011.214743,N,00824.109939,W,1,08,1.5,109.5,M,,,,*1A
$GPRMC,111302.0,A,4011.214743,N,00824.109939,W,27.9,339.9,170608,,,A*4E
$GPGSA,A,3,02,04,07,08,10,13,27,255,,,,,3.2,1.5,2.8*00
$GPVTG,339.9,T,,M,27.9,N,51.6,K*6E
$GPGSV,3,1,12,02,45,219,24,04,26,184,21,07,42,052,26,08,71,115,20*72
$GPGSV,3,2,12,10,59,316,30,13,18,063,24,15,11,262,,24,18,316,20*72
$GPGSV,3,3,12,25,23,045,,26,22,262,,27,50,054,27,28,08,144,*78
$GPGGA,111303.0,4011.222276,N,00824.113022,W,1,08,1.2,109.5,M,,,,*12
$GPRMC,111303.0,A,4011.222276,N,00824.113022,W,28.7,344.5,170608,,,A*46
$GPGSA,A,3,02,04,07,08,10,13,24,27,,,,,2.3,1.2,1.9*31
$GPVTG,344.5,T,,M,28.7,N,53.1,K*6C
$GPGSV,3,1,12,02,45,219,24,04,26,184,23,07,42,052,31,08,71,115,20*76
$GPGSV,3,2,12,10,59,316,28,13,18,063,23,15,11,262,,24,18,316,24*78
$GPGSV,3,3,12,25,23,045,,26,22,262,,27,50,054,26,28,08,144,*79
$GPGGA,111304.0,4011.230441,N,00824.115144,W,1,08,1.2,109.5,M,,,,*13
$GPRMC,111304.0,A,4011.230441,N,00824.115144,W,30.3,351.2,170608,,,A*49
$GPGSA,A,3,04,07,10,13,24,27,255,255,,,,,2.3,1.2,1.9*3B
$GPVTG,351.2,T,,M,30.3,N,56.1,K*67
$GPGSV,3,1,12,02,45,219,24,04,26,184,28,07,42,052,30,08,71,115,26*7A
$GPGSV,3,2,12,10,59,316,28,13,18,063,23,15,11,262,,24,18,316,27*7B
$GPGSV,3,3,12,25,23,045,,26,22,262,,27,50,054,25,28,08,144,*7A
$GPGGA,111305.0,4011.239443,N,00824.115843,W,1,08,1.1,110.0,M,,,,*19
$GPRMC,111305.0,A,4011.239443,N,00824.115843,W,32.3,358.6,170608,,,A*42
$GPGSA,A,3,04,07,08,10,24,27,255,255,,,,,2.1,1.1,1.8*31
$GPVTG,358.6,T,,M,32.3,N,59.7,K*61
$GPGSV,3,1,12,02,45,219,25,04,26,184,26,07,42,052,24,08,71,115,22*74
$GPGSV,3,2,12,10,59,316,28,13,18,063,23,15,11,262,,24,18,316,24*78
$GPGSV,3,3,12,25,23,045,,26,22,262,,27,50,054,27,28,08,144,*78
$GPGGA,111306.0,4011.248981,N,00824.114335,W,1,08,1.0,110.5,M,,,,*10
$GPRMC,111306.0,A,4011.248981,N,00824.114335,W,34.4,7.4,170608,,,A*45
$GPGSA,A,3,02,04,07,08,10,13,24,27,,,,,2.0,1.0,1.8*31
$GPVTG,7.4,T,,M,34.4,N,63.7,K*62
$GPGSV,3,1,12,02,45,219,24,04,26,184,26,07,42,052,28,08,71,115,24*7F
$GPGSV,3,2,12,10,59,316,31,13,18,063,27,15,11,262,,24,18,316,24*74
$GPGSV,3,3,12,25,23,045,,26,22,262,,27,50,054,30,28,08,144,*7E
$GPGGA,111307.0,4011.258904,N,00824.111760,W,1,08,1.1,111.0,M,,,,*19
$GPRMC,111307.0,A,4011.258904,N,00824.111760,W,36.7,11.7,170608,,,A*7C
$GPGSA,A,3,02,07,08,10,13,27,255,255,,,,,2.1,1.1,1.8*33
$GPVTG,11.7,T,,M,36.7,N,67.9,K*5D
$GPGSV,3,1,12,02,45,219,24,04,26,184,26,07,42,052,27,08,71,115,24*70
$GPGSV,3,2,12,10,59,316,31,13,18,063,26,15,11,262,,24,18,316,24*75
$GPGSV,3,3,12,25,23,045,,26,22,262,,27,50,054,30,28,08,144,*7E
$GPGGA,111308.0,4011.269294,N,00824.109034,W,1,08,1.1,111.5,M,,,,*1C
$GPRMC,111308.0,A,4011.269294,N,00824.109034,W,38.5,11.4,170608,,,A*73
$GPGSA,A,3,02,07,08,10,13,27,255,255,,,,,2.2,1.1,1.9*31
$GPVTG,11.4,T,,M,38.5,N,71.2,K*5E
$GPGSV,3,1,12,02,45,219,25,04,26,184,26,07,42,052,28,08,71,115,24*7E
$GPGSV,3,2,12,10,59,316,31,13,18,063,26,15,11,262,,24,18,316,24*75
$GPGSV,3,3,12,25,23,045,,26,22,262,,27,50,054,32,28,08,144,*7C
$GPGGA,111309.0,4011.280061,N,00824.106006,W,1,08,1.8,112.5,M,,,,*16
$GPRMC,111309.0,A,4011.280061,N,00824.106006,W,40.2,12.1,170608,,,A*7D
$GPGSA,A,3,02,07,08,10,13,27,255,255,,,,,3.6,1.8,3.2*34
$GPVTG,12.1,T,,M,40.2,N,74.4,K*53
$GPGSV,3,1,12,02,45,219,23,04,25,184,26,07,42,052,27,08,71,115,23*73
$GPGSV,3,2,12,10,59,316,32,13,18,063,25,15,11,262,,24,18,316,24*75
$GPGSV,3,3,12,25,23,045,,26,22,262,,27,50,054,27,28,08,144,*78
$GPGGA,111310.0,4011.291156,N,00824.102868,W,1,08,1.9,113.0,M,,,,*1A
$GPRMC,111310.0,A,4011.291156,N,00824.102868,W,41.2,12.6,170608,,,A*72
$GPGSA,A,3,02,07,08,10,13,27,255,255,,,,,3.8,1.9,3.2*3B
$GPVTG,12.6,T,,M,41.2,N,76.4,K*57
$GPGSV,3,1,12,02,45,219,22,04,25,184,26,07,42,052,28,08,71,115,23*7D
$GPGSV,3,2,12,10,59,316,31,13,18,063,25,15,11,262,,24,18,316,24*76
$GPGSV,3,3,12,25,23,045,,26,22,262,,27,50,054,30,28,08,144,*7E
$GPGGA,111311.0,4011.302373,N,00824.099494,W,1,08,2.1,113.5,M,,,,*17
$GPRMC,111311.0,A,4011.302373,N,00824.099494,W,41.3,12.7,170608,,,A*71
$GPGSA,A,3,02,07,08,10,13,27,255,255,,,,,3.9,2.1,3.3*30
$GPVTG,12.7,T,,M,41.3,N,76.4,K*57
$GPGSV,3,1,12,02,45,219,22,04,25,184,26,07,42,052,30,08,71,115,23*74
$GPGSV,3,2,12,10,59,316,30,13,18,063,26,15,11,262,,24,18,316,24*74
$GPGSV,3,3,12,25,23,045,,26,22,262,,27,50,054,31,28,08,144,*7F
$GPGGA,111312.0,4011.313470,N,00824.096013,W,1,08,2.2,114.0,M,,,,*15
$GPRMC,111312.0,A,4011.313470,N,00824.096013,W,40.8,13.0,170608,,,A*7E
$GPGSA,A,3,07,08,10,13,27,255,255,255,,,,,3.9,2.2,3.2*02
$GPVTG,13.0,T,,M,40.8,N,75.5,K*59
$GPGSV,3,1,12,02,45,219,22,04,25,184,26,07,42,052,27,08,71,115,23*72
$GPGSV,3,2,12,10,59,316,29,13,18,063,25,15,11,262,,24,18,316,24*7F
$GPGSV,3,3,12,25,23,045,,26,22,262,,27,50,054,30,28,08,144,*7E
$GPGGA,111313.0,4011.324544,N,00824.092599,W,1,06,2.3,114.0,M,,,,*1A
$GPRMC,111313.0,A,4011.324544,N,00824.092599,W,41.0,13.7,170608,,,A*70
$GPGSA,A,3,07,10,13,27,255,255,,,,,,,3.8,2.3,3.1*3B
$GPVTG,13.7,T,,M,41.0,N,75.9,K*5B
$GPGSV,3,1,12,02,45,219,22,04,25,184,24,07,42,052,26,08,71,115,25*77
$GPGSV,3,2,12,10,59,316,30,13,18,063,23,15,11,262,,24,18,316,24*71
$GPGSV,3,3,12,25,23,045,,26,22,262,,27,50,054,30,28,08,144,*7E
$GPGGA,111314.0,4011.335995,N,00824.089048,W,1,06,4.0,114.5,M,,,,*1E
$GPRMC,111314.0,A,4011.335995,N,00824.089048,W,42.0,13.5,170608,,,A*75
$GPGSA,A,3,07,08,10,13,27,255,,,,,,,6.1,4.0,4.6*08
$GPVTG,13.5,T,,M,42.0,N,77.8,K*59
$GPGSV,3,1,12,02,45,219,22,04,25,184,20,07,42,052,22,08,71,115,22*70
$GPGSV,3,2,12,10,59,316,28,13,18,063,20,15,11,262,,24,18,316,24*7B
$GPGSV,3,3,12,25,23,045,,26,22,262,,27,50,054,23,28,08,144,*7C
$GPGGA,111315.0,4011.347308,N,00824.085598,W,1,07,1.4,114.5,M,,,,*10
$GPRMC,111315.0,A,4011.347308,N,00824.085598,W,41.7,13.2,170608,,,A*78
$GPGSA,A,3,02,04,07,08,10,13,27,,,,,,3.0,1.4,2.7*3E
$GPVTG,13.2,T,,M,41.7,N,77.2,K*50
$GPGSV,3,1,12,02,45,219,22,04,25,184,20,07,42,052,22,08,71,115,24*76
$GPGSV,3,2,12,10,59,316,27,13,18,063,20,15,11,262,,24,18,316,24*74
$GPGSV,3,3,12,25,23,045,,26,22,262,,27,50,054,23,28,08,144,19*74
$GPGGA,111316.0,4011.358511,N,00824.082058,W,1,07,1.3,114.5,M,,,,*1A
$GPRMC,111316.0,A,4011.358511,N,00824.082058,W,41.4,13.8,170608,,,A*7C
$GPGSA,A,3,08,10,255,255,255,255,255,,,,,,2.9,1.3,2.5*07
$GPVTG,13.8,T,,M,41.4,N,76.7,K*5D
$GPGSV,3,1,12,02,45,219,22,04,25,184,20,07,42,052,22,08,71,115,22*70
$GPGSV,3,2,12,10,59,316,23,13,18,063,20,15,11,262,,24,18,316,24*70
$GPGSV,3,3,12,25,23,045,,26,22,262,,27,50,054,23,28,08,144,20*7E
$GPGGA,111317.0,4011.368660,N,00824.079000,W,1,07,1.5,115.0,M,,,,*16
$GPRMC,111317.0,A,4011.368660,N,00824.079000,W,38.5,13.3,170608,,,A*76
$GPGSA,A,3,08,10,13,255,255,255,255,,,,,,2.6,1.5,2.2*39
$GPVTG,13.3,T,,M,38.5,N,71.4,K*5D
$GPGSV,3,1,12,02,45,219,22,04,25,184,17,07,42,052,30,08,71,115,25*70
$GPGSV,3,2,12,10,59,316,25,13,18,063,20,15,11,262,,24,18,316,24*76
$GPGSV,3,3,12,25,23,045,,26,22,262,,27,50,054,22,28,08,144,20*7F
$GPGGA,111318.0,4011.377788,N,00824.076983,W,1,07,2.3,115.0,M,,,,*18
$GPRMC,111318.0,A,4011.377788,N,00824.076983,W,35.4,10.4,170608,,,A*75
$GPGSA,A,3,04,07,08,10,27,255,255,,,,,,4.2,2.3,3.5*3C
$GPVTG,10.4,T,,M,35.4,N,65.6,K*52
$GPGSV,3,1,12,02,45,219,29,04,25,184,17,07,42,052,35,08,71,115,26*7D
$GPGSV,3,2,12,10,59,316,31,13,18,063,20,15,11,262,,24,18,316,22*75
$GPGSV,3,3,12,25,23,045,,26,22,262,,27,50,054,27,28,08,144,20*7A
$GPGGA,111319.0,4011.386071,N,00824.076958,W,1,09,1.0,114.5,M,,,,*1A
$GPRMC,111319.0,A,4011.386071,N,00824.076958,W,32.0,3.0,170608,,,A*48
$GPGSA,A,3,02,07,08,10,24,27,28,255,255,,,,2.3,1.0,2.0*35
$GPVTG,3.0,T,,M,32.0,N,59.2,K*6C
$GPGSV,3,1,12,02,45,219,23,04,25,184,17,07,42,052,35,08,71,115,24*75
$GPGSV,3,2,12,10,59,316,33,13,18,063,20,15,11,262,,24,18,316,20*75
$GPGSV,3,3,12,25,23,045,,26,22,262,,27,50,054,27,28,08,144,20*7A
$GPGGA,111320.0,4011.393370,N,00824.077929,W,1,09,1.2,115.0,M,,,,*17
$GPRMC,111320.0,A,4011.393370,N,00824.077929,W,28.3,357.1,170608,,,A*48
$GPGSA,A,3,02,07,08,10,24,27,255,255,255,,,,2.6,1.2,2.2*08
$GPVTG,357.1,T,,M,28.3,N,52.4,K*6A
$GPGSV,3,1,12,02,45,219,26,04,25,184,17,07,42,052,29,08,71,115,26*7F
$GPGSV,3,2,12,10,59,316,29,13,18,063,20,15,11,262,,24,18,316,22*7C
$GPGSV,3,3,12,25,23,045,,26,22,262,,27,50,054,21,28,08,144,20*7C
$GPGGA,111321.0,4011.399146,N,00824.079795,W,1,09,1.2,115.0,M,,,,*1C
$GPRMC,111321.0,A,4011.399146,N,00824.079795,W,22.4,350.4,170608,,,A*4C
$GPGSA,A,3,02,07,08,10,24,27,255,255,255,,,,2.4,1.2,2.1*09
$GPVTG,350.4,T,,M,22.4,N,41.5,K*66
$GPGSV,3,1,12,02,45,219,28,04,25,184,17,07,42,052,33,08,71,115,21*7D
$GPGSV,3,2,12,10,59,316,28,13,18,063,25,15,11,262,,24,18,316,20*7A
$GPGSV,3,3,12,25,23,045,,26,22,262,27,27,50,054,28,28,08,144,20*70
$GPGGA,111322.0,4011.404007,N,00824.081600,W,1,09,1.5,115.0,M,,,,*15
$GPRMC,111322.0,A,4011.404007,N,00824.081600,W,17.9,346.4,170608,,,A*4E
$GPGSA,A,3,02,07,08,10,13,24,27,255,255,,,,2.6,1.5,2.1*3C
$GPVTG,346.4,T,,M,17.9,N,33.2,K*68
$GPGSV,3,1,12,02,45,219,25,04,25,184,17,07,42,052,28,08,71,115,28*73
$GPGSV,3,2,12,10,59,316,32,13,18,063,22,15,11,262,,24,18,316,23*75
$GPGSV,3,3,12,25,23,045,,26,22,262,26,27,50,054,28,28,08,144,20*71
$GPGGA,111323.0,4011.407739,N,00824.080916,W,1,10,1.2,115.5,M,,,,*1E
$GPRMC,111323.0,A,4011.407739,N,00824.080916,W,13.7,8.7,170608,,,A*4F
$GPGSA,A,3,02,07,08,10,13,24,26,27,255,255,,,2.2,1.2,1.8*31
$GPVTG,8.7,T,,M,13.7,N,25.3,K*6E
$GPGSV,3,1,12,02,45,219,25,04,25,184,17,07,42,052,37,08,71,115,29*7C
$GPGSV,3,2,12,10,59,316,29,13,18,063,24,15,11,262,,24,18,316,25*7F
$GPGSV,3,3,12,25,23,045,,26,22,262,21,27,50,054,35,28,08,144,20*7A
$GPGGA,111324.0,4011.411347,N,00824.079010,W,1,10,1.3,116.0,M,,,,*1D
$GPRMC,111324.0,A,4011.411347,N,00824.079010,W,14.9,29.9,170608,,,A*7F
$GPGSA,A,3,02,07,08,10,13,24,26,27,255,255,,,2.3,1.3,1.9*30
$GPVTG,29.9,T,,M,14.9,N,27.6,K*5D
$GPGSV,3,1,12,02,45,219,23,04,25,184,17,07,42,052,26,08,71,115,25*76
$GPGSV,3,2,12,10,59,316,26,13,18,063,24,15,11,262,,24,18,316,25*70
$GPGSV,3,3,12,25,23,045,,26,22,262,24,27,50,054,30,28,08,144,20*7A
$GPGGA,111325.0,4011.413907,N,00824.074720,W,1,09,1.3,116.0,M,,,,*11
$GPRMC,111325.0,A,4011.413907,N,00824.074720,W,15.0,54.9,170608,,,A*79
$GPGSA,A,3,02,07,08,10,13,24,26,27,255,,,,2.2,1.3,1.7*0D
$GPVTG,54.9,T,,M,15.0,N,27.8,K*51
$GPGSV,3,1,12,02,44,219,35,04,25,184,17,07,42,052,30,08,71,115,25*77
$GPGSV,3,2,12,10,59,316,24,13,18,063,24,15,11,262,,24,18,316,22*75
$GPGSV,3,3,12,25,23,045,,26,22,262,23,27,50,054,27,28,08,144,20*7B
$GPGGA,111326.0,4011.415989,N,00824.069153,W,1,08,1.5,116.5,M,,,,*1E
$GPRMC,111326.0,A,4011.415989,N,00824.069153,W,16.3,68.7,170608,,,A*75
$GPGSA,A,3,02,07,08,10,24,26,27,255,,,,,3.0,1.5,2.6*08
$GPVTG,68.7,T,,M,16.3,N,30.2,K*5C
$GPGSV,3,1,12,02,44,219,35,04,25,184,17,07,42,052,28,08,71,115,28*73
$GPGSV,3,2,12,10,59,316,26,13,18,063,24,15,11,262,,24,18,316,22*77
$GPGSV,3,3,12,25,23,045,,26,22,262,25,27,50,054,26,28,08,144,20*7C
$GPGGA,111327.0,4011.417616,N,00824.063012,W,1,08,1.5,117.5,M,,,,*1B
$GPRMC,111327.0,A,4011.417616,N,00824.063012,W,17.7,72.4,170608,,,A*7C
$GPGSA,A,3,02,07,08,10,26,27,255,255,,,,,3.0,1.5,2.7*3D
$GPVTG,72.4,T,,M,17.7,N,32.7,K*56
$GPGSV,3,1,12,02,44,219,33,04,25,184,17,07,42,052,24,08,71,115,31*71
$GPGSV,3,2,12,10,59,316,25,13,18,063,23,15,11,262,,24,18,316,22*73
$GPGSV,3,3,12,25,23,045,,26,22,262,26,27,50,054,25,28,08,144,20*7C
$GPGGA,111328.0,4011.418994,N,00824.056369,W,1,08,1.4,118.0,M,,,,*1C
$GPRMC,111328.0,A,4011.418994,N,00824.056369,W,18.6,78.6,170608,,,A*76
$GPGSA,A,3,02,07,08,10,13,26,27,255,,,,,2.6,1.4,2.2*0E
$GPVTG,78.6,T,,M,18.6,N,34.4,K*55
$GPGSV,3,1,12,02,44,219,28,04,25,184,17,07,42,052,28,08,71,115,31*77
$GPGSV,3,2,12,10,59,316,26,13,18,063,21,15,11,262,,24,18,316,22*72
$GPGSV,3,3,12,25,23,045,,26,22,262,25,27,50,054,24,28,08,144,20*7E
$GPGGA,111329.0,4011.419364,N,00824.049755,W,1,08,1.5,118.5,M,,,,*18
$GPRMC,111329.0,A,4011.419364,N,00824.049755,W,17.6,89.1,170608,,,A*70
$GPGSA,A,3,02,07,08,10,13,26,27,255,,,,,2.7,1.5,2.3*0F
$GPVTG,89.1,T,,M,17.6,N,32.5,K*54
$GPGSV,3,1,12,02,44,219,34,04,25,184,17,07,42,052,29,08,71,115,30*7A
$GPGSV,3,2,12,10,59,316,21,13,18,063,25,15,11,262,,24,18,316,22*71
$GPGSV,3,3,12,25,23,045,,26,22,262,24,27,50,054,29,28,08,144,20*72
$GPGGA,111330.0,4011.418398,N,00824.043917,W,1,08,1.9,119.0,M,,,,*18
$GPRMC,111330.0,A,4011.418398,N,00824.043917,W,15.5,104.3,170608,,,A*4F
$GPGSA,A,3,02,07,08,10,13,26,27,255,,,,,3.2,1.9,2.5*01
$GPVTG,104.3,T,,M,15.5,N,28.6,K*6B
$GPGSV,3,1,12,02,44,219,36,04,25,184,17,07,42,052,24,08,71,115,26*72
$GPGSV,3,2,12,10,59,316,21,13,18,063,28,15,11,262,,24,18,316,23*7D
$GPGSV,3,3,12,25,23,045,,26,22,262,23,27,50,054,26,28,08,144,20*7A
$GPGGA,111331.0,4011.415717,N,00824.039094,W,1,08,1.4,119.5,M,,,,*10
$GPRMC,111331.0,A,4011.415717,N,00824.039094,W,15.3,122.8,170608,,,A*46
$GPGSA,A,3,02,07,08,10,13,24,26,27,,,,,2.7,1.4,2.3*3A
$GPVTG,122.8,T,,M,15.3,N,28.4,K*60
$GPGSV,3,1,12,02,44,219,33,04,25,184,17,07,42,052,23,08,71,115,30*77
$GPGSV,3,2,12,10,59,316,23,13,18,063,24,15,11,262,,24,18,316,26*76
$GPGSV,3,3,12,25,23,045,,26,22,262,23,27,50,054,26,28,08,144,20*7A
$GPGGA,111332.0,4011.411666,N,00824.034980,W,1,08,1.3,120.0,M,,,,*19
$GPRMC,111332.0,A,4011.411666,N,00824.034980,W,17.2,142.2,170608,,,A*48
$GPGSA,A,3,02,07,08,10,13,24,26,27,,,,,2.6,1.3,2.3*3C
$GPVTG,142.2,T,,M,17.2,N,31.9,K*6A
$GPGSV,3,1,12,02,44,219,32,04,25,184,17,07,42,052,25,08,71,115,21*70
$GPGSV,3,2,12,10,59,316,22,13,18,063,24,15,11,262,,24,18,316,25*74
$GPGSV,3,3,12,25,23,045,,26,22,262,26,27,50,054,26,28,08,144,20*7F
$GPGGA,111333.0,4011.406554,N,00824.031857,W,1,08,1.3,120.0,M,,,,*12
$GPRMC,111333.0,A,4011.406554,N,00824.031857,W,19.9,154.7,170608,,,A*44
$GPGSA,A,3,02,07,08,10,24,26,27,255,,,,,2.7,1.3,2.4*0A
$GPVTG,154.7,T,,M,19.9,N,36.9,K*6A
$GPGSV,3,1,12,02,44,219,35,04,25,184,17,07,42,052,25,08,71,115,30*77
$GPGSV,3,2,12,10,59,316,27,13,18,063,22,15,11,262,,24,18,316,27*75
$GPGSV,3,3,12,25,23,045,,26,22,262,24,27,50,054,27,28,08,144,20*7C
$GPGGA,111334.0,4011.401837,N,00824.028618,W,1,08,1.3,120.5,M,,,,*12
$GPRMC,111334.0,A,4011.401837,N,00824.028618,W,17.7,147.3,170608,,,A*47
$GPGSA,A,3,02,07,08,10,13,24,26,27,,,,,2.9,1.3,2.6*36
$GPVTG,147.3,T,,M,17.7,N,32.8,K*69
$GPGSV,3,1,12,02,44,219,35,04,25,184,17,07,42,052,28,08,71,115,26*7D
$GPGSV,3,2,12,10,59,316,23,13,18,063,21,15,11,262,,24,18,316,22*77
$GPGSV,3,3,12,25,23,045,,26,22,262,25,27,50,054,25,28,08,144,20*7F
$GPGGA,111335.0,4011.397532,N,00824.024675,W,1,08,1.4,121.0,M,,,,*17
$GPRMC,111335.0,A,4011.397532,N,00824.024675,W,17.4,135.8,170608,,,A*4C
$GPGSA,A,3,02,07,08,10,13,24,26,27,,,,,3.1,1.4,2.7*39
$GPVTG,135.8,T,,M,17.4,N,32.3,K*6F
$GPGSV,3,1,12,02,44,219,28,04,25,184,17,07,42,052,28,08,71,115,32*74
$GPGSV,3,2,12,10,59,316,26,13,18,063,23,15,11,262,,24,18,316,21*73
$GPGSV,3,3,12,25,23,045,,26,22,264,24,27,50,054,27,28,08,144,20*7A
$GPGGA,111336.0,4011.395405,N,00824.019118,W,1,08,1.3,121.0,M,,,,*16
$GPRMC,111336.0,A,4011.395405,N,00824.019118,W,17.7,111.2,170608,,,A*45
$GPGSA,A,3,02,07,08,10,13,24,26,27,,,,,2.5,1.3,2.1*3D
$GPVTG,111.2,T,,M,17.7,N,32.8,K*6B
$GPGSV,3,1,12,02,44,219,28,04,25,184,17,07,42,052,27,08,71,115,34*7D
$GPGSV,3,2,12,10,59,316,23,13,18,063,23,15,11,262,,24,18,316,24*73
$GPGSV,3,3,12,25,23,045,,26,22,264,22,27,50,054,27,28,08,144,20*7C
$GPGGA,111337.0,4011.395908,N,00824.012927,W,1,08,1.4,121.0,M,,,,*1F
$GPRMC,111337.0,A,4011.395908,N,00824.012927,W,17.0,84.0,170608,,,A*73
$GPGSA,A,3,02,07,08,10,13,24,26,27,,,,,2.6,1.4,2.2*3A
$GPVTG,84.0,T,,M,17.0,N,31.5,K*5D
$GPGSV,3,1,12,02,44,219,25,04,25,184,17,07,42,052,37,08,71,115,26*72
$GPGSV,3,2,12,10,59,316,26,13,18,063,23,15,11,262,,24,18,316,25*77
$GPGSV,3,3,12,25,23,045,,26,22,264,22,27,50,054,34,28,08,144,20*7E
$GPGGA,111338.0,4011.398736,N,00824.007561,W,1,08,1.5,121.5,M,,,,*10
$GPRMC,111338.0,A,4011.398736,N,00824.007561,W,17.4,56.3,170608,,,A*70
$GPGSA,A,3,02,07,08,10,24,27,255,255,,,,,2.6,1.5,2.2*3D
$GPVTG,56.3,T,,M,17.4,N,32.3,K*50
$GPGSV,3,1,12,02,44,219,23,04,25,184,,07,42,052,37,08,71,115,27*73
$GPGSV,3,2,12,10,59,316,27,13,18,063,23,15,11,262,,24,18,316,25*76
$GPGSV,3,3,12,25,23,045,,26,22,264,22,27,50,054,35,28,08,144,20*7F
$GPGGA,111339.0,4011.403235,N,00824.003754,W,1,08,1.5,121.5,M,,,,*12
$GPRMC,111339.0,A,4011.403235,N,00824.003754,W,17.8,33.4,170608,,,A*7A
$GPGSA,A,3,02,07,08,10,24,26,27,255,,,,,2.8,1.5,2.3*04
$GPVTG,33.4,T,,M,17.8,N,33.0,K*5A
$GPGSV,3,1,12,02,44,219,23,04,25,184,,07,42,052,27,08,71,115,27*72
$GPGSV,3,2,12,10,59,316,28,13,18,063,23,15,11,262,,24,18,316,20*7C
$GPGSV,3,3,12,25,23,045,,26,22,264,21,27,50,054,24,28,08,144,*7E
$GPGGA,111340.0,4011.408988,N,00824.001722,W,1,08,1.5,121.5,M,,,,*19
$GPRMC,111340.0,A,4011.408988,N,00824.001722,W,21.1,17.5,170608,,,A*7A
$GPGSA,A,3,07,08,10,24,26,27,255,255,,,,,3.0,1.5,2.6*38
$GPVTG,17.5,T,,M,21.1,N,39.1,K*5A
$GPGSV,3,1,12,02,44,219,21,04,25,184,,07,42,052,38,08,71,115,30*78
$GPGSV,3,2,12,10,59,316,29,13,18,063,23,15,11,262,,24,18,316,25*78
$GPGSV,3,3,12,25,23,045,,26,22,264,21,27,50,054,32,28,08,144,*79
$GPGGA,111341.0,4011.415375,N,00823.998599,W,1,08,2.5,121.5,M,,,,*13
$GPRMC,111341.0,A,4011.415375,N,00823.998599,W,24.9,22.6,170608,,,A*7B
$GPGSA,A,3,02,07,08,10,24,26,27,255,,,,,4.8,2.5,4.1*05
$GPVTG,22.6,T,,M,24.9,N,46.2,K*59
$GPGSV,3,1,12,02,44,219,24,04,25,184,,07,42,052,37,08,71,115,30*72
$GPGSV,3,2,12,10,59,316,30,13,18,063,23,15,11,262,,24,18,316,27*72
$GPGSV,3,3,12,25,23,045,,26,22,264,21,27,50,054,39,28,08,144,*72
$GPGGA,111342.0,4011.423055,N,00823.993334,W,1,08,2.4,121.5,M,,,,*1F
$GPRMC,111342.0,A,4011.423055,N,00823.993334,W,30.4,31.4,170608,,,A*7E
$GPGSA,A,3,02,07,08,10,24,26,27,255,,,,,4.6,2.4,3.9*05
$GPVTG,31.4,T,,M,30.4,N,56.4,K*56
$GPGSV,3,1,12,02,44,219,21,04,25,184,,07,42,052,37,08,71,115,31*76
$GPGSV,3,2,12,10,59,316,20,13,18,063,23,15,11,262,,24,18,316,27*73
$GPGSV,3,3,12,25,23,045,,26,23,264,22,27,50,054,37,28,08,144,*7E
$GPGGA,111343.0,4011.430968,N,00823.986509,W,1,08,3.7,121.0,M,,,,*10
$GPRMC,111343.0,A,4011.430968,N,00823.986509,W,34.5,34.5,170608,,,A*77
$GPGSA,A,3,02,07,08,10,26,27,255,255,,,,,6.7,3.7,5.6*39
$GPVTG,34.5,T,,M,34.5,N,63.8,K*5D
$GPGSV,3,1,12,02,44,219,22,04,25,184,,07,42,052,22,08,71,115,24*75
$GPGSV,3,2,12,10,59,316,20,13,18,063,23,15,11,262,,24,18,316,22*76
$GPGSV,3,3,12,25,23,045,,26,23,264,22,27,50,054,24,28,08,144,*7C
$GPGGA,111344.0,4011.439063,N,00823.979247,W,1,07,1.7,121.0,M,,,,*1C
$GPRMC,111344.0,A,4011.439063,N,00823.979247,W,35.6,35.1,170608,,,A*71
$GPGSA,A,3,02,07,08,24,27,255,255,,,,,,3.6,1.7,3.1*3D
$GPVTG,35.1,T,,M,35.6,N,65.9,K*5D
$GPGSV,3,1,12,02,44,219,22,04,25,184,,07,42,052,33,08,71,115,22*73
$GPGSV,3,2,12,10,59,316,29,13,18,063,23,15,11,262,,24,18,316,23*7E
$GPGSV,3,3,12,25,23,045,,26,23,264,22,27,50,054,30,28,08,144,*79
$GPGGA,111345.0,4011.447318,N,00823.971467,W,1,07,2.2,121.0,M,,,,*11
$GPRMC,111345.0,A,4011.447318,N,00823.971467,W,36.9,35.5,170608,,,A*72
$GPGSA,A,3,07,08,10,24,27,255,255,,,,,,4.3,2.2,3.7*3C
$GPVTG,35.5,T,,M,36.9,N,68.3,K*52
$GPGSV,3,1,12,02,44,219,21,04,25,184,,07,42,052,38,08,71,115,30*78
$GPGSV,3,2,12,10,59,316,29,13,18,063,23,15,11,262,,24,18,316,29*74
$GPGSV,3,3,12,25,23,045,,26,23,264,20,27,50,054,39,28,08,144,*72
$GPGGA,111346.0,4011.456436,N,00823.963521,W,1,07,2.2,121.0,M,,,,*19
$GPRMC,111346.0,A,4011.456436,N,00823.963521,W,38.9,33.0,170608,,,A*77
$GPGSA,A,3,02,07,08,10,24,26,27,,,,,,4.3,2.2,3.7*3A
$GPVTG,33.0,T,,M,38.9,N,72.0,K*57
$GPGSV,3,1,12,02,44,219,21,04,25,184,,07,42,052,40,08,71,115,30*77
$GPGSV,3,2,12,10,59,316,31,13,18,063,23,15,11,262,,24,18,316,28*7C
$GPGSV,3,3,12,25,23,045,,26,23,264,28,27,50,054,36,28,08,144,*75
$GPGGA,111347.0,4011.466069,N,00823.956123,W,1,07,2.3,121.0,M,,,,*14
$GPRMC,111347.0,A,4011.466069,N,00823.956123,W,39.3,27.0,170608,,,A*75
$GPGSA,A,3,07,08,10,24,26,27,255,,,,,,4.3,2.3,3.6*0A
$GPVTG,27.0,T,,M,39.3,N,72.8,K*51
$GPGSV,3,1,12,02,44,219,27,04,25,184,,07,42,052,32,08,71,115,27*72
$GPGSV,3,2,12,10,59,316,22,13,18,063,23,15,11,262,24,24,18,316,28*78
$GPGSV,3,3,12,25,23,045,,26,23,264,22,27,50,054,29,28,08,144,*71
$GPGGA,111348.0,4011.476515,N,00823.950168,W,1,07,2.2,121.0,M,,,,*1C
