$GPGGA,131307.000,4011.1528,N,00824.3731,W,1,11,0.9,55.3,M,51.1,M,,0000*74
$GPGSA,A,3,25,13,07,20,27,02,08,17,04,10,23,,1.5,0.9,1.2*31
$GPRMC,131307.000,A,4011.1528,N,00824.3731,W,0.00,,140408,,,A*6E
$GPGGA,131308.000,4011.1544,N,00824.3737,W,1,11,0.9,48.4,M,51.1,M,,0000*7C
$GPGSA,A,3,25,13,07,20,27,02,08,17,04,10,23,,1.5,0.9,1.2*31
$GPRMC,131308.000,A,4011.1544,N,00824.3737,W,3.24,66.11,140408,,,A*46
$GPGGA,131309.000,4011.1550,N,00824.3719,W,1,11,0.9,49.0,M,51.1,M,,0000*71
$GPGSA,A,3,25,13,07,20,27,02,08,17,04,10,23,,1.5,0.9,1.2*31
$GPRMC,131309.000,A,4011.1550,N,00824.3719,W,7.22,63.96,140408,,,A*46
$GPGGA,131310.000,4011.1561,N,00824.3688,W,1,11,0.9,49.8,M,51.1,M,,0000*7A
$GPGSA,A,3,25,13,07,20,27,02,08,17,04,10,23,,1.5,0.9,1.2*31
$GPGSV,3,1,11,13,79,039,39,04,74,277,37,25,47,117,24,02,38,309,35*76
$GPGSV,3,2,11,23,38,047,31,07,36,141,27,27,35,151,32,20,18,088,30*7F
$GPGSV,3,3,11,17,15,208,39,08,11,172,32,10,05,280,34*4F
$GPRMC,131310.000,A,4011.1561,N,00824.3688,W,10.79,66.31,140408,,,A*75
$GPGGA,131311.000,4011.1572,N,00824.3650,W,1,11,0.9,50.2,M,51.1,M,,0000*7E
$GPGSA,A,3,25,13,07,20,27,02,08,17,04,10,23,,1.5,0.9,1.2*31
$GPRMC,131311.000,A,4011.1572,N,00824.3650,W,11.48,67.95,140408,,,A*7F
$GPGGA,131312.000,4011.1584,N,00824.3606,W,1,11,0.9,50.6,M,51.1,M,,0000*73
$GPGSA,A,3,25,13,07,20,27,02,08,17,04,10,23,,1.5,0.9,1.2*31
$GPRMC,131312.000,A,4011.1584,N,00824.3606,W,13.78,70.88,140408,,,A*7D
$GPGGA,131313.000,4011.1597,N,00824.3552,W,1,11,0.9,51.2,M,51.1,M,,0000*77
$GPGSA,A,3,25,13,07,20,27,02,08,17,04,10,23,,1.5,0.9,1.2*31
$GPRMC,131313.000,A,4011.1597,N,00824.3552,W,16.47,71.12,140408,,,A*77
$GPGGA,131314.000,4011.1611,N,00824.3489,W,1,10,1.0,51.9,M,51.1,M,,0000*78
$GPGSA,A,3,25,13,07,20,27,02,08,17,04,23,,,1.8,1.0,1.5*32
$GPRMC,131314.000,A,4011.1611,N,00824.3489,W,18.98,71.87,140408,,,A*7A
$GPGGA,131315.000,4011.1628,N,00824.3419,W,1,11,0.9,52.4,M,51.1,M,,0000*7D
$GPGSA,A,3,25,13,07,20,27,02,08,17,04,10,23,,1.5,0.9,1.2*31
$GPGSV,3,1,11,13,79,039,40,04,74,277,37,25,47,117,38,02,38,309,36*76
$GPGSV,3,2,11,23,38,047,28,07,36,141,39,27,35,151,35,20,18,088,33*7C
$GPGSV,3,3,11,17,15,208,36,08,11,172,29,10,05,280,31*4F
$GPRMC,131315.000,A,4011.1628,N,00824.3419,W,20.59,71.70,140408,,,A*76
$GPGGA,131316.000,4011.1645,N,00824.3347,W,1,11,0.9,53.0,M,51.1,M,,0000*7C
$GPGSA,A,3,25,13,07,20,27,02,08,17,04,10,23,,1.5,0.9,1.2*31
$GPRMC,131316.000,A,4011.1645,N,00824.3347,W,20.47,72.27,140408,,,A*7C
$GPGGA,131317.000,4011.1662,N,00824.3272,W,1,11,0.9,53.7,M,51.1,M,,0000*78
$GPGSA,A,3,25,13,07,20,27,02,08,17,04,10,23,,1.5,0.9,1.2*31
$GPRMC,131317.000,A,4011.1662,N,00824.3272,W,21.85,72.55,140408,,,A*75
$GPGGA,131318.000,4011.1681,N,00824.3192,W,1,10,1.0,54.5,M,51.1,M,,0000*7B
$GPGSA,A,3,25,13,07,20,27,02,08,17,04,10,,,1.6,1.0,1.2*3B
$GPRMC,131318.000,A,4011.1681,N,00824.3192,W,23.30,72.35,140408,,,A*70
$GPGGA,131319.000,4011.1700,N,00824.3110,W,1,09,1.0,55.7,M,51.1,M,,0000*73
$GPGSA,A,3,25,13,07,20,02,08,17,04,10,,,,1.6,1.0,1.2*3E
$GPRMC,131319.000,A,4011.1700,N,00824.3110,W,24.10,72.41,140408,,,A*75
$GPGGA,131320.000,4011.1720,N,00824.3026,W,1,09,1.0,56.9,M,51.1,M,,0000*72
$GPGSA,A,3,25,13,20,27,02,08,17,04,10,,,,1.6,1.0,1.2*3C
$GPGSV,3,1,11,13,78,038,40,04,74,276,33,25,47,116,23,02,38,309,35*7B
$GPGSV,3,2,11,23,37,047,,07,36,141,15,27,35,151,13,20,18,088,16*74
$GPGSV,3,3,11,17,15,208,38,08,11,172,25,10,05,280,32*4E
$GPRMC,131320.000,A,4011.1720,N,00824.3026,W,24.29,72.06,140408,,,A*70
$GPGGA,131321.000,4011.1741,N,00824.2942,W,1,10,0.9,57.7,M,51.1,M,,0000*71
$GPGSA,A,3,25,13,07,20,02,08,17,04,10,23,,,1.5,0.9,1.2*34
$GPRMC,131321.000,A,4011.1741,N,00824.2942,W,23.89,72.55,140408,,,A*77
$GPGGA,131322.000,4011.1763,N,00824.2862,W,1,10,0.9,58.3,M,51.1,M,,0000*7A
$GPGSA,A,3,25,13,07,20,02,08,17,04,10,23,,,1.5,0.9,1.2*34
$GPRMC,131322.000,A,4011.1763,N,00824.2862,W,22.77,71.25,140408,,,A*73
$GPGGA,131323.000,4011.1780,N,00824.2787,W,1,10,0.9,58.7,M,51.1,M,,0000*76
$GPGSA,A,3,25,13,07,20,02,08,17,04,10,23,,,1.5,0.9,1.2*34
$GPRMC,131323.000,A,4011.1780,N,00824.2787,W,20.17,72.48,140408,,,A*77
$GPGGA,131324.000,4011.1793,N,00824.2722,W,1,11,0.9,59.2,M,51.1,M,,0000*79
$GPGSA,A,3,25,13,07,20,27,02,08,17,04,10,23,,1.5,0.9,1.2*31
$GPRMC,131324.000,A,4011.1793,N,00824.2722,W,17.16,72.75,140408,,,A*76
$GPGGA,131325.000,4011.1804,N,00824.2668,W,1,11,0.9,59.6,M,51.1,M,,0000*72
$GPGSA,A,3,25,13,07,20,27,02,08,17,04,10,23,,1.5,0.9,1.2*31
$GPGSV,3,1,11,13,78,038,41,04,74,276,34,25,47,116,38,02,38,309,36*74
$GPGSV,3,2,11,23,37,047,32,07,36,141,39,27,35,151,36,20,18,088,34*7C
$GPGSV,3,3,11,17,15,208,18,08,11,172,25,10,05,280,22*4D
$GPRMC,131325.000,A,4011.1804,N,00824.2668,W,13.64,76.61,140408,,,A*79
$GPGGA,131326.000,4011.1805,N,00824.2625,W,1,11,0.9,60.4,M,51.1,M,,0000*71
$GPGSA,A,3,25,13,07,20,27,02,08,17,04,10,23,,1.5,0.9,1.2*31
$GPRMC,131326.000,A,4011.1805,N,00824.2625,W,11.03,89.91,140408,,,A*7E
$GPGGA,131327.000,4011.1795,N,00824.2592,W,1,11,0.9,61.1,M,51.1,M,,0000*7D
$GPGSA,A,3,25,13,07,20,27,02,08,17,04,10,23,,1.5,0.9,1.2*31
$GPRMC,131327.000,A,4011.1795,N,00824.2592,W,9.41,109.15,140408,,,A*7C
$GPGGA,131328.000,4011.1774,N,00824.2567,W,1,11,0.9,61.9,M,51.1,M,,0000*7F
$GPGSA,A,3,25,13,07,20,27,02,08,17,04,10,23,,1.5,0.9,1.2*31
$GPRMC,131328.000,A,4011.1774,N,00824.2567,W,10.09,138.95,140408,,,A*48
$GPGGA,131329.000,4011.1744,N,00824.2547,W,1,11,0.9,62.3,M,51.1,M,,0000*76
$GPGSA,A,3,25,13,07,20,27,02,08,17,04,10,23,,1.5,0.9,1.2*31
$GPRMC,131329.000,A,4011.1744,N,00824.2547,W,13.01,155.69,140408,,,A*4B
$GPGGA,131330.000,4011.1704,N,00824.2530,W,1,11,0.9,61.6,M,51.1,M,,0000*7C
$GPGSA,A,3,25,13,07,20,27,02,08,17,04,10,23,,1.5,0.9,1.2*31
$GPGSV,3,1,11,13,78,038,28,04,74,276,38,25,47,116,31,02,38,309,42*7D
$GPGSV,3,2,11,23,37,047,28,07,36,141,32,27,35,151,36,20,18,088,34*7C
$GPGSV,3,3,11,17,15,208,29,08,11,172,33,10,05,280,26*4C
$GPRMC,131330.000,A,4011.1704,N,00824.2530,W,15.76,160.16,140408,,,A*4F
$GPGGA,131331.000,4011.1658,N,00824.2511,W,1,10,1.0,60.6,M,51.1,M,,0000*7E
$GPGSA,A,3,25,13,07,20,27,02,08,17,04,23,,,1.8,1.0,1.5*32
$GPRMC,131331.000,A,4011.1658,N,00824.2511,W,17.88,162.82,140408,,,A*49
$GPGGA,131332.000,4011.1606,N,00824.2492,W,1,11,0.9,59.4,M,51.1,M,,0000*7D
$GPGSA,A,3,25,13,07,20,27,02,08,17,04,10,23,,1.5,0.9,1.2*31
$GPRMC,131332.000,A,4011.1606,N,00824.2492,W,19.51,163.03,140408,,,A*49
$GPGGA,131333.000,4011.1551,N,00824.2471,W,1,11,0.9,58.1,M,51.1,M,,0000*74
$GPGSA,A,3,25,13,07,20,27,02,08,17,04,10,23,,1.5,0.9,1.2*31
$GPRMC,131333.000,A,4011.1551,N,00824.2471,W,20.82,162.12,140408,,,A*41
$GPGGA,131334.000,4011.1493,N,00824.2447,W,1,11,0.9,56.7,M,51.1,M,,0000*71
$GPGSA,A,3,25,13,07,20,27,02,08,17,04,10,23,,1.5,0.9,1.2*31
$GPRMC,131334.000,A,4011.1493,N,00824.2447,W,21.94,161.98,140408,,,A*4B
$GPGGA,131335.000,4011.1433,N,00824.2424,W,1,11,0.9,55.3,M,51.1,M,,0000*78
$GPGSA,A,3,25,13,07,20,27,02,08,17,04,10,23,,1.5,0.9,1.2*31
$GPGSV,3,1,11,13,78,038,25,04,74,275,40,25,47,116,22,02,38,309,42*7E
$GPGSV,3,2,11,23,37,047,31,07,36,140,32,27,35,151,41,20,18,088,34*75
$GPGSV,3,3,11,17,15,208,20,08,11,172,33,10,05,281,32*41
$GPRMC,131335.000,A,4011.1433,N,00824.2424,W,21.74,162.52,140408,,,A*4E
$GPGGA,131336.000,4011.1371,N,00824.2403,W,1,11,0.9,54.4,M,51.1,M,,0000*79
$GPGSA,A,3,25,13,07,20,27,02,08,17,04,10,23,,1.5,0.9,1.2*31
$GPRMC,131336.000,A,4011.1371,N,00824.2403,W,22.21,162.50,140408,,,A*48
$GPGGA,131337.000,4011.1309,N,00824.2382,W,1,11,0.9,53.7,M,51.1,M,,0000*7D
$GPGSA,A,3,25,13,07,20,27,02,08,17,04,10,23,,1.5,0.9,1.2*31
$GPRMC,131337.000,A,4011.1309,N,00824.2382,W,22.40,162.51,140408,,,A*4E
$GPGGA,131338.000,4011.1246,N,00824.2359,W,1,11,0.9,52.8,M,51.1,M,,0000*70
$GPGSA,A,3,25,13,07,20,27,02,08,17,04,10,23,,1.5,0.9,1.2*31
$GPRMC,131338.000,A,4011.1246,N,00824.2359,W,22.69,162.42,140408,,,A*44
$GPGGA,131339.000,4011.1183,N,00824.2335,W,1,11,0.9,51.9,M,51.1,M,,0000*73
$GPGSA,A,3,25,13,07,20,27,02,08,17,04,10,23,,1.5,0.9,1.2*31
$GPRMC,131339.000,A,4011.1183,N,00824.2335,W,23.20,161.99,140408,,,A*4C
$GPGGA,131340.000,4011.1120,N,00824.2310,W,1,11,0.9,51.0,M,51.1,M,,0000*7A
$GPGSA,A,3,25,13,07,20,27,02,08,17,04,10,23,,1.5,0.9,1.2*31
$GPGSV,3,1,11,13,78,038,35,04,74,275,36,25,47,116,24,02,38,309,39*74
$GPGSV,3,2,11,23,37,047,37,07,36,140,33,27,35,151,40,20,18,088,30*77
$GPGSV,3,3,11,17,15,208,25,08,11,172,34,10,05,281,17*44
$GPRMC,131340.000,A,4011.1120,N,00824.2310,W,23.46,162.34,140408,,,A*48
$GPGGA,131341.000,4011.1056,N,00824.2286,W,1,11,0.9,50.2,M,51.1,M,,0000*76
$GPGSA,A,3,25,13,07,20,27,02,08,17,04,10,23,,1.5,0.9,1.2*31
$GPRMC,131341.000,A,4011.1056,N,00824.2286,W,23.38,162.01,140408,,,A*48
$GPGGA,131342.000,4011.0993,N,00824.2261,W,1,10,0.9,49.4,M,51.1,M,,0000*72
$GPGSA,A,3,25,13,07,20,27,02,17,04,10,23,,,1.5,0.9,1.2*39
$GPRMC,131342.000,A,4011.0993,N,00824.2261,W,23.23,162.81,140408,,,A*41
$GPGGA,131343.000,4011.0929,N,00824.2237,W,1,10,0.9,48.5,M,51.1,M,,0000*71
$GPGSA,A,3,25,13,07,20,27,02,08,04,10,23,,,1.5,0.9,1.2*37
$GPRMC,131343.000,A,4011.0929,N,00824.2237,W,23.41,162.60,140408,,,A*49
$GPGGA,131344.000,4011.0865,N,00824.2212,W,1,10,0.9,47.6,M,51.1,M,,0000*74
$GPGSA,A,3,25,13,07,20,27,02,17,04,10,23,,,1.5,0.9,1.2*39
$GPRMC,131344.000,A,4011.0865,N,00824.2212,W,23.89,162.28,140408,,,A*48
$GPGGA,131345.000,4011.0800,N,00824.2186,W,1,09,1.1,46.8,M,51.1,M,,0000*76
$GPGSA,A,3,25,13,07,20,27,02,04,10,23,,,,1.7,1.1,1.3*35
$GPGSV,3,1,11,13,78,038,36,04,74,275,35,25,47,116,28,02,38,309,39*78
$GPGSV,3,2,11,23,37,047,37,07,36,140,33,27,35,151,40,20,18,088,31*76
$GPGSV,3,3,11,17,15,208,12,08,11,172,,10,05,281,21*42
$GPRMC,131345.000,A,4011.0800,N,00824.2186,W,24.28,162.13,140408,,,A*40
$GPGGA,131346.000,4011.0734,N,00824.2160,W,1,09,1.1,46.0,M,51.1,M,,0000*7D
$GPGSA,A,3,25,13,07,20,27,02,04,10,23,,,,1.7,1.1,1.3*35
$GPRMC,131346.000,A,4011.0734,N,00824.2160,W,24.27,162.56,140408,,,A*4D
$GPGGA,131347.000,4011.0669,N,00824.2134,W,1,09,1.1,44.9,M,51.1,M,,0000*7F
$GPGSA,A,3,25,13,07,20,27,02,04,10,23,,,,1.7,1.1,1.3*35
$GPRMC,131347.000,A,4011.0669,N,00824.2134,W,24.10,162.19,140408,,,A*4B
$GPGGA,131348.000,4011.0604,N,00824.2109,W,1,09,1.1,44.0,M,51.1,M,,0000*7C
$GPGSA,A,3,25,13,07,20,27,02,04,10,23,,,,1.7,1.1,1.3*35
$GPRMC,131348.000,A,4011.0604,N,00824.2109,W,23.43,162.73,140408,,,A*4C
$GPGGA,131349.000,4011.0542,N,00824.2083,W,1,08,1.1,43.1,M,51.1,M,,0000*78
$GPGSA,A,3,13,07,20,27,02,04,10,23,,,,,1.7,1.1,1.3*32
$GPRMC,131349.000,A,4011.0542,N,00824.2083,W,22.58,161.01,140408,,,A*42
$GPGGA,131350.000,4011.0481,N,00824.2057,W,1,08,1.2,42.6,M,51.1,M,,0000*72
$GPGSA,A,3,13,20,27,02,25,04,10,23,,,,,1.7,1.2,1.3*31
$GPGSV,3,1,11,13,78,038,36,04,74,275,31,25,47,116,33,02,38,309,13*7E
$GPGSV,3,2,11,23,37,047,36,07,36,140,,27,35,151,40,20,18,088,31*77
$GPGSV,3,3,11,17,15,208,,08,11,172,,10,05,281,15*46
$GPRMC,131350.000,A,4011.0481,N,00824.2057,W,22.53,161.31,140408,,,A*45
$GPGGA,131351.000,4011.0420,N,00824.2032,W,1,09,1.1,42.2,M,51.1,M,,0000*7D
$GPGSA,A,3,13,07,20,27,02,25,04,10,23,,,,1.7,1.1,1.3*35
$GPRMC,131351.000,A,4011.0420,N,00824.2032,W,22.13,161.87,140408,,,A*45
$GPGGA,131352.000,4011.0361,N,00824.2008,W,1,10,0.9,41.3,M,51.1,M,,0000*76
$GPGSA,A,3,08,13,07,20,27,02,25,04,10,23,,,1.5,0.9,1.2*37
$GPRMC,131352.000,A,4011.0361,N,00824.2008,W,21.59,162.01,140408,,,A*4D
$GPGGA,131353.000,4011.0306,N,00824.1985,W,1,11,0.9,40.6,M,51.1,M,,0000*7C
$GPGSA,A,3,08,13,07,20,27,02,25,17,04,10,23,,1.5,0.9,1.2*31
$GPRMC,131353.000,A,4011.0306,N,00824.1985,W,19.80,161.21,140408,,,A*4C
$GPGGA,131354.000,4011.0259,N,00824.1964,W,1,11,0.9,39.8,M,51.1,M,,0000*7F
$GPGSA,A,3,08,13,07,20,27,02,25,17,04,10,23,,1.5,0.9,1.2*31
$GPRMC,131354.000,A,4011.0259,N,00824.1964,W,16.72,161.42,140408,,,A*48
$GPGGA,131355.000,4011.0219,N,00824.1946,W,1,09,1.1,39.2,M,51.1,M,,0000*70
$GPGSA,A,3,08,13,07,20,27,02,25,04,23,,,,1.9,1.1,1.6*37
$GPGSV,3,1,11,13,78,038,35,04,74,275,31,25,47,116,25,02,38,309,19*70
$GPGSV,3,2,11,23,37,047,36,07,36,140,35,27,35,151,40,20,18,088,31*71
$GPGSV,3,3,11,17,15,208,,08,11,172,35,10,05,281,*44
$GPRMC,131355.000,A,4011.0219,N,00824.1946,W,13.93,161.87,140408,,,A*4E
$GPGGA,131356.000,4011.0188,N,00824.1929,W,1,09,1.1,38.3,M,51.1,M,,0000*71
$GPGSA,A,3,08,13,07,20,27,02,25,04,23,,,,1.9,1.1,1.6*37
$GPRMC,131356.000,A,4011.0188,N,00824.1929,W,10.68,153.94,140408,,,A*4B
$GPGGA,131357.000,4011.0169,N,00824.1900,W,1,10,1.0,38.0,M,51.1,M,,0000*7E
$GPGSA,A,3,08,13,07,20,27,02,25,17,04,23,,,1.8,1.0,1.5*32
$GPRMC,131357.000,A,4011.0169,N,00824.1900,W,10.07,118.75,140408,,,A*47
$GPGGA,131358.000,4011.0165,N,00824.1862,W,1,10,1.0,37.8,M,51.1,M,,0000*7F
$GPGSA,A,3,08,13,07,20,27,02,25,17,04,23,,,1.8,1.0,1.5*32
$GPRMC,131358.000,A,4011.0165,N,00824.1862,W,9.59,88.92,140408,,,A*43
$GPGGA,131359.000,4011.0175,N,00824.1827,W,1,10,1.0,37.3,M,51.1,M,,0000*75
$GPGSA,A,3,08,13,07,20,27,02,25,17,04,23,,,1.8,1.0,1.5*32
$GPRMC,131359.000,A,4011.0175,N,00824.1827,W,10.29,61.25,140408,,,A*76
$GPGGA,131400.000,4011.0195,N,00824.1798,W,1,09,1.0,37.3,M,51.1,M,,0000*73
$GPGSA,A,3,08,13,07,20,02,25,17,04,23,,,,1.8,1.0,1.5*37
$GPGSV,3,1,11,13,78,038,37,04,74,275,34,25,47,116,40,02,38,309,35*7A
$GPGSV,3,2,11,23,37,047,36,07,36,140,35,27,35,151,,20,18,088,35*71
$GPGSV,3,3,11,17,15,208,35,08,11,172,30,10,05,281,*47
$GPRMC,131400.000,A,4011.0195,N,00824.1798,W,10.73,37.14,140408,,,A*76
$GPGGA,131401.000,4011.0225,N,00824.1784,W,1,10,1.0,36.6,M,51.1,M,,0000*7B
$GPGSA,A,3,08,13,07,20,27,02,25,17,04,23,,,1.8,1.0,1.5*32
$GPRMC,131401.000,A,4011.0225,N,00824.1784,W,11.53,10.88,140408,,,A*71
$GPGGA,131402.000,4011.0260,N,00824.1786,W,1,10,1.0,36.5,M,51.1,M,,0000*78
$GPGSA,A,3,08,13,07,20,27,02,25,17,04,23,,,1.8,1.0,1.5*32
$GPRMC,131402.000,A,4011.0260,N,00824.1786,W,12.16,351.10,140408,,,A*44
$GPGGA,131403.000,4011.0294,N,00824.1797,W,1,10,1.0,36.9,M,51.1,M,,0000*7E
$GPGSA,A,3,08,13,07,20,27,02,25,17,04,23,,,1.8,1.0,1.5*32
$GPRMC,131403.000,A,4011.0294,N,00824.1797,W,12.48,344.47,140408,,,A*43
$GPGGA,131404.000,4011.0329,N,00824.1810,W,1,10,1.0,37.5,M,51.1,M,,0000*73
$GPGSA,A,3,08,13,07,20,27,02,25,17,04,23,,,1.8,1.0,1.5*32
$GPRMC,131404.000,A,4011.0329,N,00824.1810,W,12.96,343.01,140408,,,A*45
$GPGGA,131405.000,4011.0367,N,00824.1823,W,1,10,1.0,38.2,M,51.1,M,,0000*70
$GPGSA,A,3,08,13,07,20,27,02,25,17,04,23,,,1.8,1.0,1.5*32
$GPGSV,3,1,11,13,78,038,35,04,74,275,28,25,47,116,31,02,38,309,35*73
$GPGSV,3,2,11,23,37,047,30,07,36,140,40,27,35,151,38,20,18,088,33*78
$GPGSV,3,3,11,17,15,208,30,08,11,172,36,10,05,281,*44
$GPRMC,131405.000,A,4011.0367,N,00824.1823,W,14.14,345.86,140408,,,A*4B
$GPGGA,131406.000,4011.0409,N,00824.1837,W,1,10,1.0,38.9,M,51.1,M,,0000*72
$GPGSA,A,3,08,13,07,20,27,02,25,17,04,23,,,1.8,1.0,1.5*32
$GPRMC,131406.000,A,4011.0409,N,00824.1837,W,15.94,346.55,140408,,,A*46
$GPGGA,131407.000,4011.0456,N,00824.1851,W,1,10,1.0,39.8,M,51.1,M,,0000*79
$GPGSA,A,3,08,13,07,20,27,02,25,17,04,23,,,1.8,1.0,1.5*32
$GPRMC,131407.000,A,4011.0456,N,00824.1851,W,17.93,346.26,140408,,,A*4C
$GPGGA,131408.000,4011.0508,N,00824.1869,W,1,10,1.0,40.8,M,51.1,M,,0000*79
$GPGSA,A,3,08,13,07,20,27,02,25,17,04,23,,,1.8,1.0,1.5*32
$GPRMC,131408.000,A,4011.0508,N,00824.1869,W,19.93,345.68,140408,,,A*45
$GPGGA,131409.000,4011.0565,N,00824.1888,W,1,10,1.0,42.4,M,51.1,M,,0000*72
$GPGSA,A,3,08,13,07,20,27,02,25,17,04,23,,,1.8,1.0,1.5*32
$GPRMC,131409.000,A,4011.0565,N,00824.1888,W,21.88,344.56,140408,,,A*4D
$GPGGA,131410.000,4011.0624,N,00824.1910,W,1,10,1.0,43.7,M,51.1,M,,0000*7E
$GPGSA,A,3,08,13,07,20,27,02,25,17,04,23,,,1.8,1.0,1.5*32
$GPGSV,3,1,11,13,78,038,35,04,74,275,33,25,47,116,32,02,38,309,30*7F
$GPGSV,3,2,11,23,37,047,31,07,36,140,37,27,35,151,37,20,18,088,34*71
$GPGSV,3,3,11,17,15,208,18,08,11,172,36,10,05,281,*4E
$GPRMC,131410.000,A,4011.0624,N,00824.1910,W,21.71,343.08,140408,,,A*49
$GPGGA,131411.000,4011.0682,N,00824.1933,W,1,10,1.0,45.1,M,51.1,M,,0000*72
$GPGSA,A,3,08,13,07,20,27,02,25,17,04,23,,,1.8,1.0,1.5*32
$GPRMC,131411.000,A,4011.0682,N,00824.1933,W,21.65,342.99,140408,,,A*49
$GPGGA,131412.000,4011.0738,N,00824.1961,W,1,10,1.0,47.0,M,51.1,M,,0000*75
$GPGSA,A,3,08,13,07,20,27,02,25,17,04,23,,,1.8,1.0,1.5*32
$GPRMC,131412.000,A,4011.0738,N,00824.1961,W,22.04,342.83,140408,,,A*42
$GPGGA,131413.000,4011.0796,N,00824.1988,W,1,11,0.9,48.6,M,51.1,M,,0000*77
$GPGSA,A,3,08,13,07,20,27,02,25,17,04,10,23,,1.5,0.9,1.2*31
$GPRMC,131413.000,A,4011.0796,N,00824.1988,W,22.52,342.76,140408,,,A*49
$GPGGA,131414.000,4011.0856,N,00824.2015,W,1,11,0.9,50.3,M,51.1,M,,0000*71
$GPGSA,A,3,08,13,07,20,27,02,25,17,04,10,23,,1.5,0.9,1.2*31
$GPRMC,131414.000,A,4011.0856,N,00824.2015,W,22.90,343.19,140408,,,A*45
$GPGGA,131415.000,4011.0918,N,00824.2041,W,1,10,1.0,51.7,M,51.1,M,,0000*76
$GPGSA,A,3,08,13,07,20,27,02,25,17,04,23,,,1.8,1.0,1.5*32
$GPGSV,3,1,11,13,78,038,35,04,74,275,33,25,47,116,30,02,38,309,33*7E
$GPGSV,3,2,11,23,37,047,31,07,36,140,34,27,35,151,33,20,18,088,34*76
$GPGSV,3,3,11,17,15,208,16,08,11,172,38,10,05,281,*4E
$GPRMC,131415.000,A,4011.0918,N,00824.2041,W,23.30,343.27,140408,,,A*48
$GPGGA,131416.000,4011.0979,N,00824.2066,W,1,10,1.0,53.3,M,51.1,M,,0000*71
$GPGSA,A,3,08,13,07,20,27,02,25,17,04,23,,,1.8,1.0,1.5*32
$GPRMC,131416.000,A,4011.0979,N,00824.2066,W,23.31,343.39,140408,,,A*47
$GPGGA,131417.000,4011.1040,N,00824.2090,W,1,10,1.0,54.8,M,51.1,M,,0000*77
$GPGSA,A,3,08,13,07,20,27,02,25,17,04,23,,,1.8,1.0,1.5*32
$GPRMC,131417.000,A,4011.1040,N,00824.2090,W,22.95,343.40,140408,,,A*4C
$GPGGA,131418.000,4011.1101,N,00824.2113,W,1,10,1.0,56.2,M,51.1,M,,0000*7E
$GPGSA,A,3,08,13,07,20,27,02,25,17,04,23,,,1.8,1.0,1.5*32
$GPRMC,131418.000,A,4011.1101,N,00824.2113,W,22.25,343.70,140408,,,A*45
$GPGGA,131419.000,4011.1158,N,00824.2134,W,1,10,1.0,57.5,M,51.1,M,,0000*70
$GPGSA,A,3,08,13,07,20,27,02,25,17,04,23,,,1.8,1.0,1.5*32
$GPRMC,131419.000,A,4011.1158,N,00824.2134,W,21.12,343.60,140408,,,A*4B
$GPGGA,131420.000,4011.1211,N,00824.2155,W,1,10,1.0,58.7,M,51.1,M,,0000*7E
$GPGSA,A,3,08,13,07,20,27,02,25,17,04,23,,,1.8,1.0,1.5*32
$GPGSV,3,1,11,13,78,038,35,04,74,275,33,25,47,116,31,02,38,309,32*7E
$GPGSV,3,2,11,23,37,047,31,07,36,140,34,27,35,151,33,20,18,088,34*76
$GPGSV,3,3,11,17,15,208,25,08,11,172,39,10,05,281,*4F
$GPRMC,131420.000,A,4011.1211,N,00824.2155,W,18.76,342.99,140408,,,A*47
$GPGGA,131421.000,4011.1256,N,00824.2173,W,1,11,0.9,59.8,M,51.1,M,,0000*7F
$GPGSA,A,3,08,13,07,20,27,02,25,17,04,10,23,,1.5,0.9,1.2*31
$GPRMC,131421.000,A,4011.1256,N,00824.2173,W,15.19,343.18,140408,,,A*4D
$GPGGA,131422.000,4011.1291,N,00824.2184,W,1,11,0.9,60.6,M,51.1,M,,0000*7B
$GPGSA,A,3,08,13,07,20,27,02,25,17,04,10,23,,1.5,0.9,1.2*31
$GPRMC,131422.000,A,4011.1291,N,00824.2184,W,11.36,349.02,140408,,,A*45
$GPGGA,131423.000,4011.1319,N,00824.2188,W,1,11,0.9,61.7,M,51.1,M,,0000*77
$GPGSA,A,3,08,13,07,20,27,02,25,17,04,10,23,,1.5,0.9,1.2*31
$GPRMC,131423.000,A,4011.1319,N,00824.2188,W,9.44,354.61,140408,,,A*7C
$GPGGA,131424.000,4011.1343,N,00824.2170,W,1,11,0.9,60.7,M,51.1,M,,0000*79
$GPGSA,A,3,08,13,07,20,27,02,25,17,04,10,23,,1.5,0.9,1.2*31
$GPRMC,131424.000,A,4011.1343,N,00824.2170,W,9.57,44.26,140408,,,A*40
$GPGGA,131425.000,4011.1360,N,00824.2133,W,1,11,0.9,60.5,M,51.1,M,,0000*7C
$GPGSA,A,3,08,13,07,20,27,02,25,17,04,10,23,,1.5,0.9,1.2*31
$GPGSV,3,1,11,13,78,038,42,04,74,274,41,25,47,116,36,02,38,309,31*7E
$GPGSV,3,2,11,23,37,047,38,07,36,140,38,27,36,151,36,20,18,089,31*71
$GPGSV,3,3,11,17,15,208,33,08,11,172,32,10,06,281,31*42
$GPRMC,131425.000,A,4011.1360,N,00824.2133,W,12.79,67.35,140408,,,A*72
$GPGGA,131426.000,4011.1374,N,00824.2078,W,1,11,0.9,59.8,M,51.1,M,,0000*73
$GPGSA,A,3,08,13,07,20,27,02,25,17,04,10,23,,1.5,0.9,1.2*31
$GPRMC,131426.000,A,4011.1374,N,00824.2078,W,16.32,75.32,140408,,,A*75
$GPGGA,131427.000,4011.1386,N,00824.2012,W,1,11,0.9,59.9,M,51.1,M,,0000*72
$GPGSA,A,3,08,13,07,20,27,02,25,17,04,10,23,,1.5,0.9,1.2*31
$GPRMC,131427.000,A,4011.1386,N,00824.2012,W,19.63,74.53,140408,,,A*78
$GPGGA,131428.000,4011.1402,N,00824.1935,W,1,11,0.9,60.0,M,51.1,M,,0000*7A
$GPGSA,A,3,08,13,07,20,27,02,25,17,04,10,23,,1.5,0.9,1.2*31
$GPRMC,131428.000,A,4011.1402,N,00824.1935,W,22.37,73.32,140408,,,A*7A
$GPGGA,131429.000,4011.1420,N,00824.1853,W,1,11,0.9,60.4,M,51.1,M,,0000*7E
$GPGSA,A,3,08,13,07,20,27,02,25,17,04,10,23,,1.5,0.9,1.2*31
$GPRMC,131429.000,A,4011.1420,N,00824.1853,W,23.15,72.77,140408,,,A*7B
$GPGGA,131430.000,4011.1439,N,00824.1768,W,1,11,0.9,60.8,M,51.1,M,,0000*75
$GPGSA,A,3,08,13,07,20,27,02,25,17,04,10,23,,1.5,0.9,1.2*31
$GPGSV,3,1,11,13,78,038,41,04,74,274,42,25,47,116,37,02,38,309,32*7C
$GPGSV,3,2,11,23,37,047,28,07,36,140,38,27,36,151,34,20,18,089,32*71
$GPGSV,3,3,11,17,15,208,34,08,11,172,24,10,06,281,13*42
$GPRMC,131430.000,A,4011.1439,N,00824.1768,W,24.81,72.45,140408,,,A*77
$GPGGA,131431.000,4011.1460,N,00824.1676,W,1,11,0.9,61.2,M,51.1,M,,0000*7D
$GPGSA,A,3,08,13,07,20,27,02,25,17,04,10,23,,1.5,0.9,1.2*31
$GPRMC,131431.000,A,4011.1460,N,00824.1676,W,26.54,72.37,140408,,,A*7B
$GPGGA,131432.000,4011.1482,N,00824.1580,W,1,11,0.9,61.7,M,51.1,M,,0000*7D
$GPGSA,A,3,08,13,07,20,27,02,25,17,04,10,23,,1.5,0.9,1.2*31
$GPRMC,131432.000,A,4011.1482,N,00824.1580,W,27.45,72.90,140408,,,A*72
$GPGGA,131433.000,4011.1504,N,00824.1484,W,1,11,0.9,62.2,M,51.1,M,,0000*70
$GPGSA,A,3,08,13,07,20,27,02,25,17,04,10,23,,1.5,0.9,1.2*31
$GPRMC,131433.000,A,4011.1504,N,00824.1484,W,26.82,73.16,140408,,,A*7C
$GPGGA,131434.000,4011.1525,N,00824.1391,W,1,11,0.9,62.7,M,51.1,M,,0000*72
$GPGSA,A,3,08,13,07,20,27,02,25,17,04,10,23,,1.5,0.9,1.2*31
$GPRMC,131434.000,A,4011.1525,N,00824.1391,W,25.59,71.47,140408,,,A*78
$GPGGA,131435.000,4011.1554,N,00824.1303,W,1,11,0.9,62.2,M,51.1,M,,0000*7B
$GPGSA,A,3,08,13,07,20,27,02,25,17,04,10,23,,1.5,0.9,1.2*31
$GPGSV,3,1,11,13,78,038,41,04,74,274,42,25,47,116,38,02,38,309,32*73
$GPGSV,3,2,11,23,37,047,36,07,36,140,36,27,36,151,28,20,18,089,31*7E
$GPGSV,3,3,11,17,15,208,34,08,11,172,32,10,06,281,27*42
$GPRMC,131435.000,A,4011.1554,N,00824.1303,W,24.61,67.19,140408,,,A*72
$GPGGA,131436.000,4011.1588,N,00824.1223,W,1,11,0.9,61.6,M,51.1,M,,0000*7D
$GPGSA,A,3,08,13,07,20,27,02,25,17,04,10,23,,1.5,0.9,1.2*31
$GPRMC,131436.000,A,4011.1588,N,00824.1223,W,23.94,59.11,140408,,,A*7B
$GPGGA,131437.000,4011.1630,N,00824.1152,W,1,11,0.9,61.3,M,51.1,M,,0000*7C
$GPGSA,A,3,08,13,07,20,27,02,25,17,04,10,23,,1.5,0.9,1.2*31
$GPRMC,131437.000,A,4011.1630,N,00824.1152,W,23.45,49.41,140408,,,A*77
$GPGGA,131438.000,4011.1677,N,00824.1093,W,1,11,0.9,61.6,M,51.1,M,,0000*79
$GPGSA,A,3,08,13,07,20,27,02,25,17,04,10,23,,1.5,0.9,1.2*31
$GPRMC,131438.000,A,4011.1677,N,00824.1093,W,23.30,38.79,140408,,,A*78
$GPGGA,131439.000,4011.1732,N,00824.1046,W,1,11,0.9,61.8,M,51.1,M,,0000*7E
$GPGSA,A,3,08,13,07,20,27,02,25,17,04,10,23,,1.5,0.9,1.2*31
$GPRMC,131439.000,A,4011.1732,N,00824.1046,W,22.07,28.71,140408,,,A*7D
$GPGGA,131440.000,4011.1793,N,00824.1014,W,1,11,0.9,61.8,M,51.1,M,,0000*7C
$GPGSA,A,3,08,13,07,20,27,02,25,17,04,10,23,,1.5,0.9,1.2*31
$GPGSV,3,1,11,13,78,038,39,04,74,274,34,25,47,116,31,02,38,309,38*7E
$GPGSV,3,2,11,23,37,047,33,07,36,140,32,27,36,151,31,20,18,089,26*71
$GPGSV,3,3,11,17,15,208,37,08,11,172,27,10,06,281,32*41
$GPRMC,131440.000,A,4011.1793,N,00824.1014,W,23.34,19.85,140408,,,A*77
$GPGGA,131441.000,4011.1864,N,00824.1007,W,1,11,0.9,61.6,M,51.1,M,,0000*76
$GPGSA,A,3,08,13,07,20,27,02,25,17,04,10,23,,1.5,0.9,1.2*31
$GPRMC,131441.000,A,4011.1864,N,00824.1007,W,24.00,5.95,140408,,,A*4F
$GPGGA,131442.000,4011.1932,N,00824.1010,W,1,11,0.9,61.4,M,51.1,M,,0000*73
$GPGSA,A,3,08,13,07,20,27,02,25,17,04,10,23,,1.5,0.9,1.2*31
$GPRMC,131442.000,A,4011.1932,N,00824.1010,W,23.71,354.59,140408,,,A*4E
$GPGGA,131443.000,4011.1995,N,00824.1031,W,1,11,0.9,61.4,M,51.1,M,,0000*7C
$GPGSA,A,3,08,13,07,20,27,02,25,17,04,10,23,,1.5,0.9,1.2*31
$GPRMC,131443.000,A,4011.1995,N,00824.1031,W,22.47,342.95,140408,,,A*42
$GPGGA,131444.000,4011.2050,N,00824.1062,W,1,10,1.0,61.6,M,51.1,M,,0000*75
$GPGSA,A,3,08,13,07,20,27,02,25,17,04,23,,,1.8,1.0,1.5*32
$GPRMC,131444.000,A,4011.2050,N,00824.1062,W,20.05,335.28,140408,,,A*42
$GPGGA,131445.000,4011.2095,N,00824.1097,W,1,10,1.0,61.5,M,51.1,M,,0000*74
$GPGSA,A,3,08,13,07,20,27,02,25,17,04,23,,,1.8,1.0,1.5*32
$GPGSV,3,1,11,13,78,038,38,04,74,274,32,25,47,116,36,02,38,309,37*71
$GPGSV,3,2,11,23,37,047,34,07,36,140,30,27,36,151,31,20,18,089,31*72
$GPGSV,3,3,11,17,15,208,31,08,11,172,25,10,06,281,11*44
$GPRMC,131445.000,A,4011.2095,N,00824.1097,W,16.45,328.01,140408,,,A*46
$GPGGA,131446.000,4011.2129,N,00824.1137,W,1,10,1.0,61.6,M,51.1,M,,0000*79
$GPGSA,A,3,08,13,07,20,27,02,25,17,04,23,,,1.8,1.0,1.5*32
$GPRMC,131446.000,A,4011.2129,N,00824.1137,W,15.86,314.22,140408,,,A*4A
$GPGGA,131447.000,4011.2153,N,00824.1191,W,1,10,1.0,61.7,M,51.1,M,,0000*78
$GPGSA,A,3,08,13,07,20,27,02,25,17,04,23,,,1.8,1.0,1.5*32
$GPRMC,131447.000,A,4011.2153,N,00824.1191,W,16.52,297.47,140408,,,A*49
$GPGGA,131448.000,4011.2155,N,00824.1260,W,1,10,1.0,62.2,M,51.1,M,,0000*7A
$GPGSA,A,3,08,13,07,20,27,02,25,17,04,23,,,1.8,1.0,1.5*32
$GPRMC,131448.000,A,4011.2155,N,00824.1260,W,18.63,270.79,140408,,,A*45
$GPGGA,131449.000,4011.2141,N,00824.1339,W,1,10,1.0,63.6,M,51.1,M,,0000*76
$GPGSA,A,3,08,13,07,20,27,02,25,17,04,23,,,1.8,1.0,1.5*32
$GPRMC,131449.000,A,4011.2141,N,00824.1339,W,21.84,256.99,140408,,,A*45
$GPGGA,131450.000,4011.2124,N,00824.1417,W,1,10,1.0,64.7,M,51.1,M,,0000*70
$GPGSA,A,3,08,13,07,20,27,02,25,17,04,23,,,1.8,1.0,1.5*32
$GPGSV,3,1,11,13,78,038,42,04,74,274,40,25,47,116,34,02,38,309,37*7B
$GPGSV,3,2,11,23,37,047,42,07,36,140,38,27,36,151,37,20,18,089,39*75
$GPGSV,3,3,11,17,15,208,32,08,11,172,25,10,06,281,*47
$GPRMC,131450.000,A,4011.2124,N,00824.1417,W,20.73,254.97,140408,,,A*40
$GPGGA,131451.000,4011.2111,N,00824.1486,W,1,10,1.0,65.6,M,51.1,M,,0000*7F
$GPGSA,A,3,08,13,07,20,27,02,25,17,04,23,,,1.8,1.0,1.5*32
$GPRMC,131451.000,A,4011.2111,N,00824.1486,W,17.57,261.48,140408,,,A*49
$GPGGA,131452.000,4011.2104,N,00824.1542,W,1,10,1.0,66.2,M,51.1,M,,0000*76
$GPGSA,A,3,08,13,07,20,27,02,25,17,04,23,,,1.8,1.0,1.5*32
$GPRMC,131452.000,A,4011.2104,N,00824.1542,W,13.01,263.01,140408,,,A*4F
$GPGGA,131453.000,4011.2097,N,00824.1582,W,1,10,1.0,66.6,M,51.1,M,,0000*74
$GPGSA,A,3,08,13,07,20,27,02,25,17,04,23,,,1.8,1.0,1.5*32
$GPRMC,131453.000,A,4011.2097,N,00824.1582,W,9.42,254.97,140408,,,A*7E
$GPGGA,131454.000,4011.2089,N,00824.1609,W,1,10,1.0,67.0,M,51.1,M,,0000*7B
$GPGSA,A,3,08,13,07,20,27,02,25,17,04,23,,,1.8,1.0,1.5*32
$GPRMC,131454.000,A,4011.2089,N,00824.1609,W,5.84,248.20,140408,,,A*71
$GPGGA,131455.000,4011.2084,N,00824.1619,W,1,09,1.0,67.3,M,51.1,M,,0000*7D
$GPGSA,A,3,13,07,20,27,02,25,17,04,23,,,,1.9,1.0,1.6*38


