$GPGGA,174349.000,4010.9591,N,00824.6938,W,1,08,1.1,33.4,M,51.1,M,,0000*70
$GPGSA,A,3,02,29,14,05,09,30,31,12,,,,,1.9,1.1,1.5*3C
$GPRMC,174349.000,A,4010.9591,N,00824.6938,W,40.19,100.60,040708,,,A*4B
$GPGGA,174350.000,4010.9572,N,00824.6795,W,1,08,1.1,32.9,M,51.1,M,,0000*70
$GPGSA,A,3,02,29,14,05,09,30,31,12,,,,,1.9,1.1,1.5*3C
$GPRMC,174350.000,A,4010.9572,N,00824.6795,W,40.09,99.82,040708,,,A*7B
$GPGGA,174351.000,4010.9554,N,00824.6653,W,1,08,1.1,33.0,M,51.1,M,,0000*76
$GPGSA,A,3,02,29,14,05,09,30,31,12,,,,,1.9,1.1,1.5*3C
$GPRMC,174351.000,A,4010.9554,N,00824.6653,W,39.41,99.17,040708,,,A*7B
$GPGGA,174352.000,4010.9537,N,00824.6511,W,1,08,1.1,33.1,M,51.1,M,,0000*74
$GPGSA,A,3,02,29,14,05,09,30,31,12,,,,,1.9,1.1,1.5*3C
$GPRMC,174352.000,A,4010.9537,N,00824.6511,W,39.64,98.32,040708,,,A*79
$GPGGA,174353.000,4010.9522,N,00824.6368,W,1,08,1.1,33.0,M,51.1,M,,0000*78
$GPGSA,A,3,02,29,14,05,09,30,31,12,,,,,1.9,1.1,1.5*3C
$GPGSV,3,1,12,30,72,324,36,05,63,040,38,14,55,265,34,29,51,181,31*77
$GPGSV,3,2,12,12,48,051,35,09,29,117,29,31,18,305,23,02,16,076,29*7B
$GPGSV,3,3,12,04,06,045,24,32,02,319,,24,02,149,,22,00,233,*7D
$GPRMC,174353.000,A,4010.9522,N,00824.6368,W,39.99,97.62,040708,,,A*7C
$GPGGA,174354.000,4010.9509,N,00824.6225,W,1,08,1.1,32.8,M,51.1,M,,0000*77
$GPGSA,A,3,02,29,14,05,09,30,31,12,,,,,1.9,1.1,1.5*3C
$GPRMC,174354.000,A,4010.9509,N,00824.6225,W,39.69,96.79,040708,,,A*7E
$GPGGA,174355.000,4010.9496,N,00824.6081,W,1,08,1.1,32.9,M,51.1,M,,0000*7C
$GPGSA,A,3,02,29,14,05,09,30,31,12,,,,,1.9,1.1,1.5*3C
$GPRMC,174355.000,A,4010.9496,N,00824.6081,W,39.46,96.34,040708,,,A*70
$GPGGA,174356.000,4010.9485,N,00824.5938,W,1,08,1.1,32.9,M,51.1,M,,0000*75
$GPGSA,A,3,02,29,14,05,09,30,31,12,,,,,1.9,1.1,1.5*3C
$GPRMC,174356.000,A,4010.9485,N,00824.5938,W,39.57,95.33,040708,,,A*7D
$GPGGA,174357.000,4010.9476,N,00824.5794,W,1,08,1.1,32.7,M,51.1,M,,0000*7E
$GPGSA,A,3,02,29,14,05,09,30,31,12,,,,,1.9,1.1,1.5*3C
$GPRMC,174357.000,A,4010.9476,N,00824.5794,W,39.81,94.81,040708,,,A*7B
$GPGGA,174358.000,4010.9468,N,00824.5649,W,1,08,1.1,32.8,M,51.1,M,,0000*70
$GPGSA,A,3,02,29,14,05,09,30,31,12,,,,,1.9,1.1,1.5*3C
$GPGSV,3,1,12,30,72,324,35,05,63,040,38,14,55,265,34,29,51,181,32*77
$GPGSV,3,2,12,12,48,051,37,09,29,117,23,31,18,305,27,02,16,076,21*7F
$GPGSV,3,3,12,04,06,045,31,32,02,319,,24,02,149,,22,00,233,*79
$GPRMC,174358.000,A,4010.9468,N,00824.5649,W,39.67,93.90,040708,,,A*75
$GPGGA,174359.000,4010.9461,N,00824.5505,W,1,08,1.1,33.0,M,51.1,M,,0000*7A
$GPGSA,A,3,02,29,14,05,09,30,31,12,,,,,1.9,1.1,1.5*3C
$GPRMC,174359.000,A,4010.9461,N,00824.5505,W,39.44,93.05,040708,,,A*7B
$GPGGA,174400.000,4010.9456,N,00824.5362,W,1,08,1.1,33.1,M,51.1,M,,0000*73
$GPGSA,A,3,02,29,14,05,09,30,31,12,,,,,1.9,1.1,1.5*3C
$GPRMC,174400.000,A,4010.9456,N,00824.5362,W,39.00,92.47,040708,,,A*74
$GPGGA,174401.000,4010.9453,N,00824.5221,W,1,08,1.1,33.1,M,51.1,M,,0000*71
$GPGSA,A,3,02,29,14,05,09,30,31,12,,,,,1.9,1.1,1.5*3C
$GPRMC,174401.000,A,4010.9453,N,00824.5221,W,38.04,91.21,040708,,,A*70
$GPGGA,174402.000,4010.9450,N,00824.5080,W,1,08,1.1,33.2,M,51.1,M,,0000*7B
$GPGSA,A,3,02,29,14,05,09,30,31,12,,,,,1.9,1.1,1.5*3C
$GPRMC,174402.000,A,4010.9450,N,00824.5080,W,38.87,91.29,040708,,,A*7A
$GPGGA,174403.000,4010.9449,N,00824.4939,W,1,08,1.1,33.3,M,51.1,M,,0000*79
$GPGSA,A,3,02,29,14,05,09,30,31,12,,,,,1.9,1.1,1.5*3C
$GPGSV,3,1,12,30,72,324,34,05,63,040,37,14,55,265,34,29,51,181,33*78
$GPGSV,3,2,12,12,48,051,38,09,29,117,23,31,18,305,30,02,16,076,28*7F
$GPGSV,3,3,12,04,06,045,12,32,02,319,,24,02,149,,22,00,233,*78
$GPRMC,174403.000,A,4010.9449,N,00824.4939,W,38.49,90.59,040708,,,A*7D
$GPGGA,174404.000,4010.9448,N,00824.4798,W,1,08,1.1,33.5,M,51.1,M,,0000*7C
$GPGSA,A,3,02,29,14,05,09,30,31,12,,,,,1.9,1.1,1.5*3C
$GPRMC,174404.000,A,4010.9448,N,00824.4798,W,38.84,90.18,040708,,,A*7A
$GPGGA,174405.000,4010.9448,N,00824.4655,W,1,08,1.1,33.7,M,51.1,M,,0000*7F
$GPGSA,A,3,02,29,14,05,09,30,31,12,,,,,1.9,1.1,1.5*3C
$GPRMC,174405.000,A,4010.9448,N,00824.4655,W,39.50,89.45,040708,,,A*73
$GPGGA,174406.000,4010.9450,N,00824.4511,W,1,08,1.1,33.9,M,51.1,M,,0000*78
$GPGSA,A,3,02,29,14,05,09,30,31,12,,,,,1.9,1.1,1.5*3C
$GPRMC,174406.000,A,4010.9450,N,00824.4511,W,39.62,88.55,040708,,,A*7B
$GPGGA,174407.000,4010.9455,N,00824.4367,W,1,08,1.1,34.6,M,51.1,M,,0000*73
$GPGSA,A,3,02,29,14,05,09,30,31,12,,,,,1.9,1.1,1.5*3C
$GPRMC,174407.000,A,4010.9455,N,00824.4367,W,39.35,87.39,040708,,,A*7F
$GPGGA,174408.000,4010.9461,N,00824.4225,W,1,08,1.1,35.2,M,51.1,M,,0000*79
$GPGSA,A,3,02,29,14,05,09,30,31,12,,,,,1.9,1.1,1.5*3C
$GPGSV,3,1,12,30,72,324,28,05,63,040,36,14,55,265,29,29,51,181,34*7F
$GPGSV,3,2,12,12,48,051,39,09,29,117,30,31,18,305,32,02,16,076,25*73
$GPGSV,3,3,12,04,06,045,,32,02,319,,24,02,149,,22,00,233,*7B
$GPRMC,174408.000,A,4010.9461,N,00824.4225,W,39.48,86.75,040708,,,A*73
$GPGGA,174409.000,4010.9469,N,00824.4083,W,1,08,1.1,35.8,M,51.1,M,,0000*74
$GPGSA,A,3,02,29,14,05,09,30,31,12,,,,,1.9,1.1,1.5*3C
$GPRMC,174409.000,A,4010.9469,N,00824.4083,W,39.62,85.98,040708,,,A*7C
$GPGGA,174410.000,4010.9478,N,00824.3940,W,1,08,1.1,36.3,M,51.1,M,,0000*75
$GPGSA,A,3,02,29,14,05,09,30,31,12,,,,,1.9,1.1,1.5*3C
$GPRMC,174410.000,A,4010.9478,N,00824.3940,W,39.71,85.44,040708,,,A*76
$GPGGA,174411.000,4010.9489,N,00824.3797,W,1,08,1.1,37.0,M,51.1,M,,0000*7C
$GPGSA,A,3,02,29,14,05,09,30,31,12,,,,,1.9,1.1,1.5*3C
$GPRMC,174411.000,A,4010.9489,N,00824.3797,W,39.58,84.61,040708,,,A*70
$GPGGA,174412.000,4010.9501,N,00824.3653,W,1,08,1.1,37.4,M,51.1,M,,0000*73
$GPGSA,A,3,02,29,14,05,09,30,31,12,,,,,1.9,1.1,1.5*3C
$GPRMC,174412.000,A,4010.9501,N,00824.3653,W,39.87,83.50,040708,,,A*7C
$GPGGA,174413.000,4010.9516,N,00824.3508,W,1,08,1.1,37.9,M,51.1,M,,0000*74
$GPGSA,A,3,02,29,14,05,09,30,31,12,,,,,1.9,1.1,1.5*3C
$GPGSV,3,1,12,30,72,325,29,05,63,040,35,14,55,264,29,29,51,181,34*7D
$GPGSV,3,2,12,12,48,051,40,09,29,117,31,31,18,306,25,02,16,076,23*7F
$GPGSV,3,3,12,04,06,045,,24,02,149,,32,02,319,,22,00,233,*7B
$GPRMC,174413.000,A,4010.9516,N,00824.3508,W,40.07,82.51,040708,,,A*70
$GPGGA,174414.000,4010.9532,N,00824.3363,W,1,08,1.1,38.4,M,51.1,M,,0000*7C
$GPGSA,A,3,02,29,14,05,09,30,31,12,,,,,1.9,1.1,1.5*3C
$GPRMC,174414.000,A,4010.9532,N,00824.3363,W,40.25,82.09,040708,,,A*77
$GPGGA,174415.000,4010.9548,N,00824.3219,W,1,08,1.1,38.8,M,51.1,M,,0000*70
$GPGSA,A,3,02,29,14,05,09,30,31,12,,,,,1.9,1.1,1.5*3C
$GPRMC,174415.000,A,4010.9548,N,00824.3219,W,39.84,82.06,040708,,,A*7D
$GPGGA,174416.000,4010.9564,N,00824.3078,W,1,08,1.1,39.2,M,51.1,M,,0000*73
$GPGSA,A,3,02,29,14,05,09,30,31,12,,,,,1.9,1.1,1.5*3C
$GPRMC,174416.000,A,4010.9564,N,00824.3078,W,38.18,81.42,040708,,,A*72
$GPGGA,174417.000,4010.9580,N,00824.2944,W,1,08,1.1,39.5,M,51.1,M,,0000*78
$GPGSA,A,3,02,29,14,05,09,30,31,12,,,,,1.9,1.1,1.5*3C
$GPRMC,174417.000,A,4010.9580,N,00824.2944,W,36.09,80.83,040708,,,A*7C
$GPGGA,174418.000,4010.9596,N,00824.2817,W,1,08,1.1,39.8,M,51.1,M,,0000*7A
$GPGSA,A,3,02,29,14,05,09,30,31,12,,,,,1.9,1.1,1.5*3C
$GPGSV,3,1,12,30,72,325,36,05,63,040,35,14,55,264,29,29,51,181,33*74
$GPGSV,3,2,12,12,48,051,40,09,29,117,24,31,18,306,25,02,16,076,27*7F
$GPGSV,3,3,12,04,06,044,31,24,02,149,,32,02,319,,22,00,233,*78
$GPRMC,174418.000,A,4010.9596,N,00824.2817,W,34.42,80.46,040708,,,A*77
$GPGGA,174419.000,4010.9613,N,00824.2698,W,1,08,1.1,40.3,M,51.1,M,,0000*79
$GPGSA,A,3,02,29,14,05,09,30,31,12,,,,,1.9,1.1,1.5*3C
$GPRMC,174419.000,A,4010.9613,N,00824.2698,W,32.26,79.17,040708,,,A*77
$GPGGA,174420.000,4010.9629,N,00824.2585,W,1,08,1.1,40.7,M,51.1,M,,0000*71
$GPGSA,A,3,02,29,14,05,09,30,31,12,,,,,1.9,1.1,1.5*3C
$GPRMC,174420.000,A,4010.9629,N,00824.2585,W,30.88,79.05,040708,,,A*7E
$GPGGA,174421.000,4010.9647,N,00824.2479,W,1,08,1.1,41.2,M,51.1,M,,0000*7E
$GPGSA,A,3,02,29,14,05,09,30,31,12,,,,,1.9,1.1,1.5*3C
$GPRMC,174421.000,A,4010.9647,N,00824.2479,W,29.37,77.23,040708,,,A*73
$GPGGA,174422.000,4010.9665,N,00824.2376,W,1,08,1.1,41.6,M,51.1,M,,0000*71
$GPGSA,A,3,02,29,14,05,09,30,31,12,,,,,1.9,1.1,1.5*3C
$GPRMC,174422.000,A,4010.9665,N,00824.2376,W,28.52,76.69,040708,,,A*75
$GPGGA,174423.000,4010.9683,N,00824.2277,W,1,08,1.1,41.9,M,51.1,M,,0000*77
$GPGSA,A,3,02,29,14,05,09,30,31,12,,,,,1.9,1.1,1.5*3C
$GPGSV,3,1,12,30,72,325,36,05,63,040,36,14,55,264,29,29,51,181,34*70
$GPGSV,3,2,12,12,48,051,39,09,29,117,32,31,18,306,25,02,16,076,27*76
$GPGSV,3,3,12,04,06,044,30,24,02,149,,32,02,319,,22,00,233,*79
$GPRMC,174423.000,A,4010.9683,N,00824.2277,W,27.63,76.52,040708,,,A*79
$GPGGA,174424.000,4010.9700,N,00824.2182,W,1,08,1.1,42.4,M,51.1,M,,0000*7D
$GPGSA,A,3,02,29,14,05,09,30,31,12,,,,,1.9,1.1,1.5*3C
$GPRMC,174424.000,A,4010.9700,N,00824.2182,W,26.32,76.62,040708,,,A*7B
$GPGGA,174425.000,4010.9716,N,00824.2093,W,1,08,1.1,42.9,M,51.1,M,,0000*77
$GPGSA,A,3,02,29,14,05,09,30,31,12,,,,,1.9,1.1,1.5*3C
$GPRMC,174425.000,A,4010.9716,N,00824.2093,W,24.67,76.42,040708,,,A*7C
$GPGGA,174426.000,4010.9732,N,00824.2007,W,1,08,1.1,43.3,M,51.1,M,,0000*74
$GPGSA,A,3,02,29,14,05,09,30,31,12,,,,,1.9,1.1,1.5*3C
$GPRMC,174426.000,A,4010.9732,N,00824.2007,W,23.79,75.99,040708,,,A*79
$GPGGA,174427.000,4010.9748,N,00824.1925,W,1,08,1.1,43.7,M,51.1,M,,0000*76
$GPGSA,A,3,02,29,14,05,09,30,31,12,,,,,1.9,1.1,1.5*3C
$GPRMC,174427.000,A,4010.9748,N,00824.1925,W,23.18,75.10,040708,,,A*79
$GPGGA,174428.000,4010.9765,N,00824.1849,W,1,08,1.1,42.9,M,51.1,M,,0000*72
$GPGSA,A,3,02,29,14,05,09,30,31,12,,,,,1.9,1.1,1.5*3C
$GPGSV,3,1,12,30,72,325,36,05,63,040,36,14,55,264,29,29,51,181,35*71
$GPGSV,3,2,12,12,48,051,39,09,29,117,33,31,18,306,27,02,16,076,28*7A
$GPGSV,3,3,12,04,06,044,19,24,02,149,,32,02,319,,22,00,233,*72
$GPRMC,174428.000,A,4010.9765,N,00824.1849,W,21.86,74.09,040708,,,A*7E
$GPGGA,174429.000,4010.9784,N,00824.1783,W,1,08,1.1,40.8,M,51.1,M,,0000*76
$GPGSA,A,3,02,29,14,05,09,30,31,12,,,,,1.9,1.1,1.5*3C
$GPRMC,174429.000,A,4010.9784,N,00824.1783,W,20.33,74.02,040708,,,A*7D
$GPGGA,174430.000,4010.9801,N,00824.1721,W,1,08,1.1,39.5,M,51.1,M,,0000*77
$GPGSA,A,3,02,29,14,05,09,30,31,12,,,,,1.9,1.1,1.5*3C
$GPRMC,174430.000,A,4010.9801,N,00824.1721,W,18.00,73.85,040708,,,A*7C
$GPGGA,174431.000,4010.9815,N,00824.1669,W,1,08,1.1,38.4,M,51.1,M,,0000*7E
$GPGSA,A,3,02,29,14,05,09,30,31,12,,,,,1.9,1.1,1.5*3C
$GPRMC,174431.000,A,4010.9815,N,00824.1669,W,14.90,73.35,040708,,,A*7B
$GPGGA,174432.000,4010.9826,N,00824.1628,W,1,08,1.1,37.5,M,51.1,M,,0000*76
$GPGSA,A,3,02,29,14,05,09,30,31,12,,,,,1.9,1.1,1.5*3C
$GPRMC,174432.000,A,4010.9826,N,00824.1628,W,11.26,71.09,040708,,,A*78
$GPGGA,174433.000,4010.9840,N,00824.1599,W,1,08,1.1,36.6,M,51.1,M,,0000*7C
$GPGSA,A,3,02,29,14,05,09,30,31,12,,,,,1.9,1.1,1.5*3C
$GPGSV,3,1,12,30,72,325,36,05,63,040,37,14,55,264,29,29,51,181,37*72
$GPGSV,3,2,12,12,48,051,26,09,29,117,31,31,18,306,33,02,16,076,28*73
$GPGSV,3,3,12,04,06,044,29,24,02,149,,32,02,319,,22,00,233,*71
$GPRMC,174433.000,A,4010.9840,N,00824.1599,W,9.13,55.87,040708,,,A*4F
$GPGGA,174434.000,4010.9859,N,00824.1585,W,1,08,1.1,35.7,M,51.1,M,,0000*7C
$GPGSA,A,3,02,29,14,05,09,30,31,12,,,,,1.9,1.1,1.5*3C
$GPRMC,174434.000,A,4010.9859,N,00824.1585,W,8.20,23.73,040708,,,A*46
$GPGGA,174435.000,4010.9883,N,00824.1586,W,1,08,1.1,35.7,M,51.1,M,,0000*79
$GPGSA,A,3,02,29,14,05,09,30,31,12,,,,,1.9,1.1,1.5*3C
$GPRMC,174435.000,A,4010.9883,N,00824.1586,W,8.55,353.66,040708,,,A*71
$GPGGA,174436.000,4010.9907,N,00824.1601,W,1,08,1.1,34.9,M,51.1,M,,0000*74
$GPGSA,A,3,02,29,14,05,09,30,31,12,,,,,1.9,1.1,1.5*3C
$GPRMC,174436.000,A,4010.9907,N,00824.1601,W,9.07,339.14,040708,,,A*7C
$GPGGA,174437.000,4010.9932,N,00824.1616,W,1,08,1.1,34.3,M,51.1,M,,0000*7F
$GPGSA,A,3,02,29,14,05,09,30,31,12,,,,,1.9,1.1,1.5*3C
$GPRMC,174437.000,A,4010.9932,N,00824.1616,W,8.71,343.30,040708,,,A*76
$GPGGA,174438.000,4010.9950,N,00824.1626,W,1,08,1.1,33.8,M,51.1,M,,0000*7B
$GPGSA,A,3,02,29,14,05,09,30,31,12,,,,,1.9,1.1,1.5*3C
$GPGSV,3,1,12,30,72,325,31,05,63,040,36,14,55,264,38,29,51,181,20*72
$GPGSV,3,2,12,12,48,051,24,09,29,117,36,31,18,306,31,02,16,076,29*75
$GPGSV,3,3,12,04,06,044,24,24,02,149,,32,02,319,,22,00,233,*7C
$GPRMC,174438.000,A,4010.9950,N,00824.1626,W,5.40,346.01,040708,,,A*76
$GPGGA,174439.000,4010.9960,N,00824.1631,W,1,07,1.2,33.4,M,51.1,M,,0000*7F
$GPGSA,A,3,29,14,05,09,30,31,12,,,,,,2.2,1.2,1.8*38
$GPRMC,174439.000,A,4010.9960,N,00824.1631,W,2.62,347.95,040708,,,A*79
$GPGGA,174440.000,4010.9969,N,00824.1636,W,1,08,1.1,33.2,M,51.1,M,,0000*75
$GPGSA,A,3,02,29,14,05,09,30,31,12,,,,,1.9,1.1,1.5*3C
$GPRMC,174440.000,A,4010.9969,N,00824.1636,W,3.74,347.18,040708,,,A*7A
$GPGGA,174441.000,4010.9985,N,00824.1643,W,1,08,1.1,32.9,M,51.1,M,,0000*7E
$GPGSA,A,3,02,29,14,05,09,30,31,12,,,,,1.9,1.1,1.5*3C
$GPRMC,174441.000,A,4010.9985,N,00824.1643,W,7.33,344.06,040708,,,A*70
$GPGGA,174442.000,4011.0010,N,00824.1655,W,1,08,1.1,32.7,M,51.1,M,,0000*79
$GPGSA,A,3,02,29,14,05,09,30,31,12,,,,,1.9,1.1,1.5*3C
$GPRMC,174442.000,A,4011.0010,N,00824.1655,W,10.73,342.29,040708,,,A*40
$GPGGA,174443.000,4011.0041,N,00824.1669,W,1,08,1.1,32.7,M,51.1,M,,0000*73
$GPGSA,A,3,02,29,14,05,09,30,31,12,,,,,1.9,1.1,1.5*3C
$GPGSV,3,1,12,30,72,325,24,05,63,040,37,14,55,264,38,29,51,181,29*7E
$GPGSV,3,2,12,12,48,051,32,09,29,117,36,31,19,306,38,02,16,076,22*71
$GPGSV,3,3,12,04,06,044,20,24,02,148,,32,02,318,,22,00,233,*78
$GPRMC,174443.000,A,4011.0041,N,00824.1669,W,11.70,342.71,040708,,,A*45
$GPGGA,174444.000,4011.0076,N,00824.1683,W,1,08,1.1,33.0,M,51.1,M,,0000*72
$GPGSA,A,3,02,29,14,05,09,30,31,12,,,,,1.9,1.1,1.5*3C
$GPRMC,174444.000,A,4011.0076,N,00824.1683,W,13.17,342.47,040708,,,A*44
$GPGGA,174445.000,4011.0115,N,00824.1699,W,1,08,1.1,33.5,M,51.1,M,,0000*79
$GPGSA,A,3,02,29,14,05,09,30,31,12,,,,,1.9,1.1,1.5*3C
$GPRMC,174445.000,A,4011.0115,N,00824.1699,W,14.80,343.26,040708,,,A*45
$GPGGA,174446.000,4011.0160,N,00824.1716,W,1,08,1.1,34.0,M,51.1,M,,0000*7C
$GPGSA,A,3,02,29,14,05,09,30,31,12,,,,,1.9,1.1,1.5*3C
$GPRMC,174446.000,A,4011.0160,N,00824.1716,W,16.86,342.90,040708,,,A*4A
$GPGGA,174447.000,4011.0210,N,00824.1735,W,1,08,1.1,34.6,M,51.1,M,,0000*7E
$GPGSA,A,3,02,29,14,05,09,30,31,12,,,,,1.9,1.1,1.5*3C
$GPRMC,174447.000,A,4011.0210,N,00824.1735,W,18.51,343.40,040708,,,A*46
$GPGGA,174448.000,4011.0263,N,00824.1757,W,1,08,1.1,34.9,M,51.1,M,,0000*7E
$GPGSA,A,3,02,29,14,05,09,30,31,12,,,,,1.9,1.1,1.5*3C
$GPGSV,3,1,12,30,72,325,20,05,62,040,37,14,55,264,38,29,51,181,28*7A
$GPGSV,3,2,12,12,48,051,30,09,29,117,32,31,19,306,19,02,16,076,32*75
$GPGSV,3,3,12,04,06,044,18,24,02,148,,32,02,318,,22,00,233,*73
$GPRMC,174448.000,A,4011.0263,N,00824.1757,W,20.23,342.85,040708,,,A*4F
$GPGGA,174449.000,4011.0322,N,00824.1780,W,1,08,1.1,35.5,M,51.1,M,,0000*7C
$GPGSA,A,3,02,29,14,05,09,30,31,12,,,,,1.9,1.1,1.5*3C
$GPRMC,174449.000,A,4011.0322,N,00824.1780,W,21.97,342.36,040708,,,A*46
$GPGGA,174450.000,4011.0378,N,00824.1806,W,1,08,1.1,36.9,M,51.1,M,,0000*75
$GPGSA,A,3,02,29,14,05,09,30,31,12,,,,,1.9,1.1,1.5*3C
$GPRMC,174450.000,A,4011.0378,N,00824.1806,W,21.57,341.94,040708,,,A*47
$GPGGA,174451.000,4011.0437,N,00824.1830,W,1,08,1.1,38.3,M,51.1,M,,0000*79
$GPGSA,A,3,02,29,14,05,09,30,31,12,,,,,1.9,1.1,1.5*3C
$GPRMC,174451.000,A,4011.0437,N,00824.1830,W,21.57,342.93,040708,,,A*4B
$GPGGA,174452.000,4011.0498,N,00824.1852,W,1,08,1.1,39.0,M,51.1,M,,0000*79
$GPGSA,A,3,02,29,14,05,09,30,31,12,,,,,1.9,1.1,1.5*3C
$GPRMC,174452.000,A,4011.0498,N,00824.1852,W,22.09,343.96,040708,,,A*45
$GPGGA,174453.000,4011.0560,N,00824.1875,W,1,08,1.1,39.4,M,51.1,M,,0000*7F
$GPGSA,A,3,02,29,14,05,09,30,31,12,,,,,1.9,1.1,1.5*3C
$GPGSV,3,1,12,30,72,325,28,05,62,040,37,14,55,264,38,29,51,181,28*72
$GPGSV,3,2,12,12,48,051,36,09,29,117,36,31,19,306,18,02,16,076,27*72
$GPGSV,3,3,12,04,06,044,19,24,02,148,17,32,02,318,,22,00,233,*74
$GPRMC,174453.000,A,4011.0560,N,00824.1875,W,22.99,344.64,040708,,,A*44
$GPGGA,174454.000,4011.0625,N,00824.1897,W,1,08,1.1,40.4,M,51.1,M,,0000*78
$GPGSA,A,3,02,29,14,05,09,30,31,12,,,,,1.9,1.1,1.5*3C
$GPRMC,174454.000,A,4011.0625,N,00824.1897,W,23.69,344.77,040708,,,A*41
$GPGGA,174455.000,4011.0690,N,00824.1920,W,1,08,1.1,41.4,M,51.1,M,,0000*7B
$GPGSA,A,3,02,29,14,05,09,30,31,12,,,,,1.9,1.1,1.5*3C
$GPRMC,174455.000,A,4011.0690,N,00824.1920,W,24.34,344.39,040708,,,A*46
$GPGGA,174456.000,4011.0758,N,00824.1944,W,1,08,1.1,42.4,M,51.1,M,,0000*7C
$GPGSA,A,3,02,29,14,05,09,30,31,12,,,,,1.9,1.1,1.5*3C
$GPRMC,174456.000,A,4011.0758,N,00824.1944,W,24.99,344.13,040708,,,A*4D
$GPGGA,174457.000,4011.0828,N,00824.1970,W,1,08,1.1,43.4,M,51.1,M,,0000*73
$GPGSA,A,3,02,29,14,05,09,30,31,12,,,,,1.9,1.1,1.5*3C
$GPRMC,174457.000,A,4011.0828,N,00824.1970,W,25.87,343.77,040708,,,A*48
$GPGGA,174458.000,4011.0899,N,00824.1998,W,1,08,1.1,44.3,M,51.1,M,,0000*70
$GPGSA,A,3,02,29,14,05,09,30,31,12,,,,,1.9,1.1,1.5*3C
$GPGSV,3,1,12,30,72,325,22,05,62,040,37,14,55,264,38,29,51,181,23*73
$GPGSV,3,2,12,12,48,051,36,09,29,117,35,31,19,306,35,02,16,076,25*7C
$GPGSV,3,3,12,04,06,044,19,24,02,148,27,32,02,318,,22,00,233,*77
$GPRMC,174458.000,A,4011.0899,N,00824.1998,W,26.28,343.59,040708,,,A*41
$GPGGA,174459.000,4011.0970,N,00824.2027,W,1,08,1.1,45.3,M,51.1,M,,0000*78
$GPGSA,A,3,02,29,14,05,09,30,31,12,,,,,1.9,1.1,1.5*3C
$GPRMC,174459.000,A,4011.0970,N,00824.2027,W,26.14,342.75,040708,,,A*48
$GPGGA,174500.000,4011.1041,N,00824.2055,W,1,08,1.1,46.4,M,51.1,M,,0000*7E
$GPGSA,A,3,02,29,14,05,09,30,31,12,,,,,1.9,1.1,1.5*3C
$GPRMC,174500.000,A,4011.1041,N,00824.2055,W,26.27,343.33,040708,,,A*49
$GPGGA,174501.000,4011.1109,N,00824.2081,W,1,08,1.1,47.4,M,51.1,M,,0000*7A
$GPGSA,A,3,02,29,14,05,09,30,31,12,,,,,1.9,1.1,1.5*3C
$GPRMC,174501.000,A,4011.1109,N,00824.2081,W,24.39,343.54,040708,,,A*40
$GPGGA,174502.000,4011.1172,N,00824.2105,W,1,08,1.1,48.6,M,51.1,M,,0000*75
$GPGSA,A,3,02,29,14,05,09,30,31,12,,,,,1.9,1.1,1.5*3C
$GPRMC,174502.000,A,4011.1172,N,00824.2105,W,22.04,343.05,040708,,,A*4E
$GPGGA,174503.000,4011.1226,N,00824.2129,W,1,08,1.1,49.5,M,51.1,M,,0000*7A
$GPGSA,A,3,02,29,14,05,09,30,31,12,,,,,1.9,1.1,1.5*3C
$GPGSV,3,1,12,30,72,325,23,05,62,040,38,14,55,264,38,29,51,181,28*76
$GPGSV,3,2,12,12,48,051,30,09,29,117,31,31,19,306,35,02,16,076,26*7D
$GPGSV,3,3,12,04,06,044,16,24,02,148,32,32,02,318,,22,00,233,*7C
$GPRMC,174503.000,A,4011.1226,N,00824.2129,W,19.80,342.69,040708,,,A*4C
$GPGGA,174504.000,4011.1272,N,00824.2150,W,1,08,1.1,50.5,M,51.1,M,,0000*7A
$GPGSA,A,3,02,29,14,05,09,30,31,12,,,,,1.9,1.1,1.5*3C
$GPRMC,174504.000,A,4011.1272,N,00824.2150,W,17.09,342.51,040708,,,A*40
$GPGGA,174505.000,4011.1311,N,00824.2167,W,1,08,1.1,51.3,M,51.1,M,,0000*7C
$GPGSA,A,3,02,29,14,05,09,30,31,12,,,,,1.9,1.1,1.5*3C
$GPRMC,174505.000,A,4011.1311,N,00824.2167,W,13.99,343.27,040708,,,A*4C
$GPGGA,174506.000,4011.1343,N,00824.2178,W,1,08,1.1,52.0,M,51.1,M,,0000*76
$GPGSA,A,3,02,29,14,05,09,30,31,12,,,,,1.9,1.1,1.5*3C
$GPRMC,174506.000,A,4011.1343,N,00824.2178,W,11.14,349.82,040708,,,A*44
$GPGGA,174507.000,4011.1367,N,00824.2178,W,1,08,1.1,52.6,M,51.1,M,,0000*77
$GPGSA,A,3,02,29,14,05,09,30,31,12,,,,,1.9,1.1,1.5*3C
$GPRMC,174507.000,A,4011.1367,N,00824.2178,W,9.03,10.19,040708,,,A*41
$GPGGA,174508.000,4011.1390,N,00824.2162,W,1,08,1.1,53.5,M,51.1,M,,0000*79
$GPGSA,A,3,02,29,14,05,09,30,31,12,,,,,1.9,1.1,1.5*3C
$GPGSV,3,1,12,30,72,325,40,05,62,040,33,14,55,264,39,29,51,181,39*79
$GPGSV,3,2,12,12,48,051,34,09,29,117,37,31,19,306,36,02,16,076,31*7A
$GPGSV,3,3,12,04,06,044,24,24,02,148,31,32,02,318,,22,00,233,*7E
$GPRMC,174508.000,A,4011.1390,N,00824.2162,W,8.85,36.93,040708,,,A*44
$GPGGA,174509.000,4011.1406,N,00824.2135,W,1,08,1.1,54.1,M,51.1,M,,0000*71
$GPGSA,A,3,02,29,14,05,09,30,31,12,,,,,1.9,1.1,1.5*3C
$GPRMC,174509.000,A,4011.1406,N,00824.2135,W,10.10,58.60,040708,,,A*7E
$GPGGA,174510.000,4011.1418,N,00824.2096,W,1,08,1.1,54.5,M,51.1,M,,0000*7A
$GPGSA,A,3,02,29,14,05,09,30,31,12,,,,,1.9,1.1,1.5*3C
$GPRMC,174510.000,A,4011.1418,N,00824.2096,W,12.74,69.24,040708,,,A*73
$GPGGA,174511.000,4011.1428,N,00824.2045,W,1,07,1.2,54.8,M,51.1,M,,0000*77
$GPGSA,A,3,29,14,05,09,30,31,12,,,,,,2.2,1.2,1.8*38
$GPRMC,174511.000,A,4011.1428,N,00824.2045,W,15.51,75.05,040708,,,A*71
$GPGGA,174512.000,4011.1440,N,00824.1981,W,1,07,1.2,55.2,M,51.1,M,,0000*73
$GPGSA,A,3,29,14,05,09,30,31,12,,,,,,2.2,1.2,1.8*38
$GPRMC,174512.000,A,4011.1440,N,00824.1981,W,18.37,75.01,040708,,,A*77
$GPGGA,174513.000,4011.1455,N,00824.1909,W,1,08,1.1,55.7,M,51.1,M,,0000*7F
$GPGSA,A,3,02,29,14,05,09,30,31,12,,,,,1.9,1.1,1.5*3C
$GPGSV,3,1,12,30,72,325,39,05,62,040,43,14,55,264,34,29,51,181,26*73
$GPGSV,3,2,12,12,48,051,30,09,29,117,29,31,19,306,32,02,16,076,23*76
$GPGSV,3,3,12,04,06,044,24,24,02,148,12,32,02,318,,22,00,233,*7F
$GPRMC,174513.000,A,4011.1455,N,00824.1909,W,20.59,74.91,040708,,,A*79
$GPGGA,174514.000,4011.1470,N,00824.1833,W,1,08,1.1,56.1,M,51.1,M,,0000*72
$GPGSA,A,3,02,29,14,05,09,30,31,12,,,,,1.9,1.1,1.5*3C
$GPRMC,174514.000,A,4011.1470,N,00824.1833,W,21.07,74.72,040708,,,A*76
$GPGGA,174515.000,4011.1486,N,00824.1756,W,1,08,1.1,56.6,M,51.1,M,,0000*71
$GPGSA,A,3,02,29,14,05,09,30,31,12,,,,,1.9,1.1,1.5*3C
$GPRMC,174515.000,A,4011.1486,N,00824.1756,W,21.36,73.43,040708,,,A*75
$GPGGA,174516.000,4011.1503,N,00824.1678,W,1,08,1.1,57.1,M,51.1,M,,0000*75
$GPGSA,A,3,02,29,14,05,09,30,31,12,,,,,1.9,1.1,1.5*3C
$GPRMC,174516.000,A,4011.1503,N,00824.1678,W,22.89,73.10,040708,,,A*76
$GPGGA,174517.000,4011.1520,N,00824.1594,W,1,08,1.1,57.7,M,51.1,M,,0000*72
$GPGSA,A,3,02,29,14,05,09,30,31,12,,,,,1.9,1.1,1.5*3C
$GPRMC,174517.000,A,4011.1520,N,00824.1594,W,24.23,73.70,040708,,,A*77
$GPGGA,174518.000,4011.1539,N,00824.1507,W,1,08,1.1,58.2,M,51.1,M,,0000*75
$GPGSA,A,3,02,29,14,05,09,30,31,12,,,,,1.9,1.1,1.5*3C
$GPGSV,3,1,12,30,72,326,39,05,62,041,42,14,55,263,36,29,51,181,25*76
$GPGSV,3,2,12,12,48,051,25,09,28,117,29,31,19,306,32,02,16,075,20*73
$GPGSV,3,3,12,04,06,044,24,24,02,148,12,32,02,318,,22,00,233,*7F
$GPRMC,174518.000,A,4011.1539,N,00824.1507,W,25.23,72.76,040708,,,A*7C
$GPGGA,174519.000,4011.1560,N,00824.1419,W,1,07,1.2,58.6,M,51.1,M,,0000*7E
$GPGSA,A,3,29,14,05,09,30,31,12,,,,,,2.2,1.2,1.8*38
$GPRMC,174519.000,A,4011.1560,N,00824.1419,W,24.63,72.62,040708,,,A*7F
$GPGGA,174520.000,4011.1580,N,00824.1335,W,1,07,1.2,59.0,M,51.1,M,,0000*74
$GPGSA,A,3,29,14,05,09,30,31,12,,,,,,2.2,1.2,1.8*38
$GPRMC,174520.000,A,4011.1580,N,00824.1335,W,23.68,70.51,040708,,,A*7C
$GPGGA,174521.000,4011.1606,N,00824.1258,W,1,06,1.4,59.4,M,51.1,M,,0000*71
$GPGSA,A,3,29,05,09,30,31,12,,,,,,,2.3,1.4,1.9*3B
$GPRMC,174521.000,A,4011.1606,N,00824.1258,W,22.33,64.95,040708,,,A*78
$GPGGA,174522.000,4011.1637,N,00824.1190,W,1,06,1.4,59.9,M,51.1,M,,0000*7A
$GPGSA,A,3,29,05,09,30,31,12,,,,,,,2.3,1.4,1.9*3B
$GPRMC,174522.000,A,4011.1637,N,00824.1190,W,21.45,56.38,040708,,,A*7A
$GPGGA,174523.000,4011.1673,N,00824.1132,W,1,06,1.4,60.6,M,51.1,M,,0000*76
$GPGSA,A,3,29,05,09,30,31,12,,,,,,,2.3,1.4,1.9*3B
$GPGSV,3,1,12,30,72,326,38,05,62,041,34,14,55,263,,29,51,181,36*71
$GPGSV,3,2,12,12,48,051,27,09,28,117,23,31,19,306,37,02,16,075,*7C
$GPGSV,3,3,12,04,06,044,20,24,02,148,17,32,02,318,,22,00,233,*7E
$GPRMC,174523.000,A,4011.1673,N,00824.1132,W,21.08,47.67,040708,,,A*70
$GPGGA,174524.000,4011.1716,N,00824.1084,W,1,08,1.1,61.1,M,51.1,M,,0000*72
$GPGSA,A,3,14,29,02,05,09,30,31,12,,,,,1.9,1.1,1.5*3C
$GPRMC,174524.000,A,4011.1716,N,00824.1084,W,19.92,38.00,040708,,,A*78
$GPGGA,174525.000,4011.1766,N,00824.1048,W,1,08,1.1,61.7,M,51.1,M,,0000*72
$GPGSA,A,3,14,29,02,05,09,30,31,12,,,,,1.9,1.1,1.5*3C
$GPRMC,174525.000,A,4011.1766,N,00824.1048,W,20.83,25.56,040708,,,A*7B
$GPGGA,174526.000,4011.1825,N,00824.1021,W,1,08,1.1,62.1,M,51.1,M,,0000*73
$GPGSA,A,3,14,29,02,05,09,30,31,12,,,,,1.9,1.1,1.5*3C
$GPRMC,174526.000,A,4011.1825,N,00824.1021,W,22.55,16.62,040708,,,A*71
$GPGGA,174527.000,4011.1887,N,00824.1007,W,1,08,1.1,62.7,M,51.1,M,,0000*78
$GPGSA,A,3,14,29,02,05,09,30,31,12,,,,,1.9,1.1,1.5*3C
$GPRMC,174527.000,A,4011.1887,N,00824.1007,W,22.27,7.16,040708,,,A*4A
$GPGGA,174528.000,4011.1950,N,00824.1010,W,1,08,1.1,62.9,M,51.1,M,,0000*74
$GPGSA,A,3,14,29,02,05,09,30,31,12,,,,,1.9,1.1,1.5*3C
$GPGSV,3,1,12,30,72,326,39,05,62,041,41,14,55,263,39,29,51,181,28*77
$GPGSV,3,2,12,12,48,051,32,09,28,117,35,31,19,306,37,02,16,075,28*75
$GPGSV,3,3,12,04,06,044,24,24,02,148,27,32,02,318,,22,00,233,*79
$GPRMC,174528.000,A,4011.1950,N,00824.1010,W,22.70,354.40,040708,,,A*4C
$GPGGA,174529.000,4011.2013,N,00824.1030,W,1,08,1.1,63.0,M,51.1,M,,0000*72
$GPGSA,A,3,14,29,02,05,09,30,31,12,,,,,1.9,1.1,1.5*3C
$GPRMC,174529.000,A,4011.2013,N,00824.1030,W,23.10,344.02,040708,,,A*42
$GPGGA,174530.000,4011.2068,N,00824.1059,W,1,08,1.1,62.8,M,51.1,M,,0000*70
$GPGSA,A,3,14,29,02,05,09,30,31,12,,,,,1.9,1.1,1.5*3C
$GPRMC,174530.000,A,4011.2068,N,00824.1059,W,21.09,338.36,040708,,,A*4F
$GPGGA,174531.000,4011.2123,N,00824.1091,W,1,08,1.1,62.8,M,51.1,M,,0000*7B
$GPGSA,A,3,14,29,02,05,09,30,31,12,,,,,1.9,1.1,1.5*3C
$GPRMC,174531.000,A,4011.2123,N,00824.1091,W,21.29,336.20,040708,,,A*4F
$GPGGA,174532.000,4011.2181,N,00824.1125,W,1,08,1.1,62.9,M,51.1,M,,0000*7F
$GPGSA,A,3,14,29,02,05,09,30,31,12,,,,,1.9,1.1,1.5*3C
$GPRMC,174532.000,A,4011.2181,N,00824.1125,W,22.67,337.77,040708,,,A*40
$GPGGA,174533.000,4011.2245,N,00824.1153,W,1,08,1.1,62.4,M,51.1,M,,0000*79
$GPGSA,A,3,14,29,02,05,09,30,31,12,,,,,1.9,1.1,1.5*3C
$GPGSV,3,1,12,30,72,326,27,05,62,041,36,14,55,263,39,29,51,181,36*77
$GPGSV,3,2,12,12,48,051,29,09,28,117,33,31,19,306,35,02,16,075,29*7A
$GPGSV,3,3,12,04,06,044,15,24,02,148,22,32,02,318,,22,00,233,*7E
$GPRMC,174533.000,A,4011.2245,N,00824.1153,W,24.06,344.93,040708,,,A*44
$GPGGA,174534.000,4011.2314,N,00824.1171,W,1,08,1.1,62.6,M,51.1,M,,0000*79
$GPGSA,A,3,14,29,02,05,09,30,31,12,,,,,1.9,1.1,1.5*3C
$GPRMC,174534.000,A,4011.2314,N,00824.1171,W,25.66,351.14,040708,,,A*4A
$GPGGA,174535.000,4011.2388,N,00824.1181,W,1,08,1.1,62.9,M,51.1,M,,0000*7D
$GPGSA,A,3,14,29,02,05,09,30,31,12,,,,,1.9,1.1,1.5*3C
$GPRMC,174535.000,A,4011.2388,N,00824.1181,W,26.71,357.94,040708,,,A*4A
$GPGGA,174536.000,4011.2465,N,00824.1180,W,1,08,1.1,63.1,M,51.1,M,,0000*72
$GPGSA,A,3,14,29,02,05,09,30,31,12,,,,,1.9,1.1,1.5*3C
$GPRMC,174536.000,A,4011.2465,N,00824.1180,W,28.09,2.80,040708,,,A*4B
$GPGGA,174537.000,4011.2545,N,00824.1169,W,1,08,1.1,63.6,M,51.1,M,,0000*70
$GPGSA,A,3,14,29,02,05,09,30,31,12,,,,,1.9,1.1,1.5*3C
$GPRMC,174537.000,A,4011.2545,N,00824.1169,W,28.96,9.22,040708,,,A*4B
$GPGGA,174538.000,4011.2627,N,00824.1149,W,1,08,1.1,64.4,M,51.1,M,,0000*7F
$GPGSA,A,3,14,29,02,05,09,30,31,12,,,,,1.9,1.1,1.5*3C
$GPGSV,3,1,12,30,72,326,36,05,62,041,36,14,55,263,39,29,51,181,34*75
$GPGSV,3,2,12,12,48,051,30,09,28,117,35,31,19,306,36,02,16,075,22*7C
$GPGSV,3,3,12,04,06,044,13,24,02,148,29,32,02,318,,22,00,233,*73
$GPRMC,174538.000,A,4011.2627,N,00824.1149,W,30.55,12.88,040708,,,A*7D
$GPGGA,174539.000,4011.2711,N,00824.1124,W,1,08,1.1,65.3,M,51.1,M,,0000*77
$GPGSA,A,3,14,29,02,05,09,30,31,12,,,,,1.9,1.1,1.5*3C
$GPRMC,174539.000,A,4011.2711,N,00824.1124,W,31.55,13.25,040708,,,A*74
$GPGGA,174540.000,4011.2796,N,00824.1099,W,1,08,1.1,66.2,M,51.1,M,,0000*73
$GPGSA,A,3,14,29,02,05,09,30,31,12,,,,,1.9,1.1,1.5*3C
$GPRMC,174540.000,A,4011.2796,N,00824.1099,W,30.62,12.97,040708,,,A*7F
$GPGGA,174541.000,4011.2879,N,00824.1075,W,1,08,1.1,67.1,M,51.1,M,,0000*7C
$GPGSA,A,3,14,29,02,05,09,30,31,12,,,,,1.9,1.1,1.5*3C
$GPRMC,174541.000,A,4011.2879,N,00824.1075,W,30.58,12.71,040708,,,A*73
$GPGGA,174542.000,4011.2964,N,00824.1051,W,1,08,1.1,68.0,M,51.1,M,,0000*7A
$GPGSA,A,3,14,29,02,05,09,30,31,12,,,,,1.9,1.1,1.5*3C
$GPRMC,174542.000,A,4011.2964,N,00824.1051,W,31.27,12.79,040708,,,A*7A
$GPGGA,174543.000,4011.3050,N,00824.1025,W,1,08,1.1,68.9,M,51.1,M,,0000*7E
$GPGSA,A,3,14,29,02,05,09,30,31,12,,,,,1.9,1.1,1.5*3C
$GPGSV,3,1,11,30,72,327,38,05,62,041,35,14,55,263,35,29,52,181,36*77
$GPGSV,3,2,11,12,48,051,32,09,28,117,38,31,19,306,36,02,16,075,20*72
$GPGSV,3,3,11,04,06,044,22,24,03,148,29,32,02,318,*41
$GPRMC,174543.000,A,4011.3050,N,00824.1025,W,31.84,13.27,040708,,,A*74
$GPGGA,174544.000,4011.3138,N,00824.0999,W,1,08,1.1,69.6,M,51.1,M,,0000*77
$GPGSA,A,3,14,29,02,05,09,30,31,12,,,,,1.9,1.1,1.5*3C
$GPRMC,174544.000,A,4011.3138,N,00824.0999,W,32.71,13.31,040708,,,A*7D
$GPGGA,174545.000,4011.3228,N,00824.0971,W,1,08,1.1,70.1,M,51.1,M,,0000*7D
$GPGSA,A,3,14,29,02,05,09,30,31,12,,,,,1.9,1.1,1.5*3C
$GPRMC,174545.000,A,4011.3228,N,00824.0971,W,33.62,12.91,040708,,,A*70
$GPGGA,174546.000,4011.3321,N,00824.0945,W,1,08,1.1,70.6,M,51.1,M,,0000*76
$GPGSA,A,3,14,29,02,05,09,30,31,12,,,,,1.9,1.1,1.5*3C
$GPRMC,174546.000,A,4011.3321,N,00824.0945,W,34.15,12.62,040708,,,A*77
$GPGGA,174547.000,4011.3412,N,00824.0917,W,1,08,1.1,71.3,M,51.1,M,,0000*73
$GPGSA,A,3,14,29,02,05,09,30,31,12,,,,,1.9,1.1,1.5*3C
$GPRMC,174547.000,A,4011.3412,N,00824.0917,W,33.47,13.36,040708,,,A*76
$GPGGA,174548.000,4011.3501,N,00824.0890,W,1,08,1.1,71.9,M,51.1,M,,0000*7B
$GPGSA,A,3,14,29,02,05,09,30,31,12,,,,,1.9,1.1,1.5*3C
$GPGSV,3,1,11,30,72,327,38,05,62,041,35,14,55,263,36,29,52,181,37*75
$GPGSV,3,2,11,12,48,051,37,09,28,117,39,31,19,306,29,02,16,075,21*79
$GPGSV,3,3,11,04,06,044,24,24,03,148,30,32,02,318,13*4D
$GPRMC,174548.000,A,4011.3501,N,00824.0890,W,32.27,13.46,040708,,,A*74
$GPGGA,174549.000,4011.3586,N,00824.0863,W,1,08,1.1,72.6,M,51.1,M,,0000*75
$GPGSA,A,3,14,29,02,05,09,30,31,12,,,,,1.9,1.1,1.5*3C
$GPRMC,174549.000,A,4011.3586,N,00824.0863,W,31.04,13.75,040708,,,A*74
$GPGGA,174550.000,4011.3668,N,00824.0838,W,1,08,1.1,72.9,M,51.1,M,,0000*7F
$GPGSA,A,3,14,29,02,05,09,30,31,12,,,,,1.9,1.1,1.5*3C
$GPRMC,174550.000,A,4011.3668,N,00824.0838,W,29.76,12.87,040708,,,A*71
$GPGGA,174551.000,4011.3746,N,00824.0816,W,1,08,1.1,73.3,M,51.1,M,,0000*74
$GPGSA,A,3,14,29,02,05,09,30,31,12,,,,,1.9,1.1,1.5*3C
$GPRMC,174551.000,A,4011.3746,N,00824.0816,W,27.59,11.64,040708,,,A*7C
$GPGGA,174552.000,4011.3818,N,00824.0800,W,1,08,1.1,73.6,M,51.1,M,,0000*71
$GPGSA,A,3,14,29,02,05,09,30,31,12,,,,,1.9,1.1,1.5*3C
$GPRMC,174552.000,A,4011.3818,N,00824.0800,W,25.33,8.21,040708,,,A*4B
$GPGGA,174553.000,4011.3884,N,00824.0794,W,1,08,1.1,73.8,M,51.1,M,,0000*79
$GPGSA,A,3,14,29,02,05,09,30,31,12,,,,,1.9,1.1,1.5*3C
$GPGSV,3,1,11,30,72,327,38,05,62,041,36,14,55,263,37,29,52,181,26*77
$GPGSV,3,2,11,12,48,051,27,09,28,117,38,31,19,306,37,02,16,075,31*77
$GPGSV,3,3,11,04,06,044,12,24,03,148,38,32,02,318,*42
$GPRMC,174553.000,A,4011.3884,N,00824.0794,W,23.22,1.58,040708,,,A*4C
$GPGGA,174554.000,4011.3944,N,00824.0799,W,1,08,1.1,74.1,M,51.1,M,,0000*70
$GPGSA,A,3,14,29,02,05,09,30,31,12,,,,,1.9,1.1,1.5*3C
$GPRMC,174554.000,A,4011.3944,N,00824.0799,W,21.41,354.74,040708,,,A*41
$GPGGA,174555.000,4011.4000,N,00824.0809,W,1,08,1.1,74.3,M,51.1,M,,0000*7B
$GPGSA,A,3,14,29,02,05,09,30,31,12,,,,,1.9,1.1,1.5*3C
$GPRMC,174555.000,A,4011.4000,N,00824.0809,W,19.41,349.73,040708,,,A*48
$GPGGA,174556.000,4011.4049,N,00824.0824,W,1,08,1.1,74.6,M,51.1,M,,0000*7F
$GPGSA,A,3,14,29,02,05,09,30,31,12,,,,,1.9,1.1,1.5*3C
$GPRMC,174556.000,A,4011.4049,N,00824.0824,W,16.80,346.78,040708,,,A*4F
$GPGGA,174557.000,4011.4089,N,00824.0835,W,1,08,1.1,74.9,M,51.1,M,,0000*7D
$GPGSA,A,3,14,29,02,05,09,30,31,12,,,,,1.9,1.1,1.5*3C
$GPRMC,174557.000,A,4011.4089,N,00824.0835,W,13.50,351.37,040708,,,A*47
$GPGGA,174558.000,4011.4123,N,00824.0835,W,1,08,1.1,75.1,M,51.1,M,,0000*7A
$GPGSA,A,3,14,29,02,05,09,30,31,12,,,,,1.9,1.1,1.5*3C
$GPGSV,3,1,11,30,72,327,34,05,62,041,29,14,55,263,38,29,52,181,29*75
$GPGSV,3,2,11,12,48,051,30,09,28,117,33,31,19,306,37,02,16,075,26*7C
$GPGSV,3,3,11,04,06,044,,24,03,148,25,32,02,318,*4D
$GPRMC,174558.000,A,4011.4123,N,00824.0835,W,11.87,8.55,040708,,,A*4A
$GPGGA,174559.000,4011.4153,N,00824.0818,W,1,08,1.1,75.2,M,51.1,M,,0000*70
$GPGSA,A,3,14,29,02,05,09,30,31,12,,,,,1.9,1.1,1.5*3C
$GPRMC,174559.000,A,4011.4153,N,00824.0818,W,11.47,30.39,040708,,,A*7E
$GPGGA,174600.000,4011.4175,N,00824.0789,W,1,08,1.1,75.5,M,51.1,M,,0000*7B
$GPGSA,A,3,14,29,02,05,09,30,31,12,,,,,1.9,1.1,1.5*3C
$GPRMC,174600.000,A,4011.4175,N,00824.0789,W,11.83,51.67,040708,,,A*76
$GPGGA,174601.000,4011.4190,N,00824.0750,W,1,08,1.1,75.7,M,51.1,M,,0000*77
$GPGSA,A,3,14,29,02,05,09,30,31,12,,,,,1.9,1.1,1.5*3C
$GPRMC,174601.000,A,4011.4190,N,00824.0750,W,12.35,67.13,040708,,,A*70
$GPGGA,174602.000,4011.4200,N,00824.0706,W,1,08,1.1,76.0,M,51.1,M,,0000*79
$GPGSA,A,3,14,29,02,05,09,30,31,12,,,,,1.9,1.1,1.5*3C
$GPRMC,174602.000,A,4011.4200,N,00824.0706,W,13.24,73.29,040708,,,A*77
$GPGGA,174603.000,4011.4210,N,00824.0658,W,1,08,1.1,76.3,M,51.1,M,,0000*70
$GPGSA,A,3,14,29,02,05,09,30,31,12,,,,,1.9,1.1,1.5*3C
$GPGSV,3,1,11,30,72,327,38,05,62,041,36,14,55,263,32,29,52,181,40*72
$GPGSV,3,2,11,12,48,051,32,09,28,117,32,31,19,306,25,02,16,075,20*7A
$GPGSV,3,3,11,04,06,044,,24,03,148,16,32,02,318,*4D
$GPRMC,174603.000,A,4011.4210,N,00824.0658,W,13.99,73.80,040708,,,A*78
$GPGGA,174604.000,4011.4219,N,00824.0607,W,1,08,1.1,76.5,M,51.1,M,,0000*72
$GPGSA,A,3,14,29,02,05,09,30,31,12,,,,,1.9,1.1,1.5*3C
$GPRMC,174604.000,A,4011.4219,N,00824.0607,W,14.75,76.32,040708,,,A*75
$GPGGA,174605.000,4011.4224,N,00824.0554,W,1,08,1.1,76.7,M,51.1,M,,0000*7A
$GPGSA,A,3,14,29,02,05,09,30,31,12,,,,,1.9,1.1,1.5*3C
$GPRMC,174605.000,A,4011.4224,N,00824.0554,W,14.45,85.58,040708,,,A*7C
$GPGGA,174606.000,4011.4220,N,00824.0503,W,1,07,1.8,77.0,M,51.1,M,,0000*7F
$GPGSA,A,3,14,29,02,05,09,30,12,,,,,,3.5,1.8,3.0*3E
$GPRMC,174606.000,A,4011.4220,N,00824.0503,W,13.75,100.30,040708,,,A*4F
$GPGGA,174607.000,4011.4204,N,00824.0455,W,1,07,1.8,76.9,M,51.1,M,,0000*72
$GPGSA,A,3,14,29,02,05,09,30,12,,,,,,3.5,1.8,3.0*3E
$GPRMC,174607.000,A,4011.4204,N,00824.0455,W,14.14,120.44,040708,,,A*4B
$GPGGA,174608.000,4011.4177,N,00824.0414,W,1,08,1.1,76.9,M,51.1,M,,0000*79
$GPGSA,A,3,14,29,02,05,09,30,31,12,,,,,1.9,1.1,1.5*3C
$GPGSV,3,1,11,30,72,327,32,05,62,041,36,14,55,263,38,29,52,181,33*76
$GPGSV,3,2,11,12,48,051,39,09,28,117,35,31,19,306,35,02,16,075,35*73
$GPGSV,3,3,11,04,06,044,,24,03,148,21,32,02,318,*49
$GPRMC,174608.000,A,4011.4177,N,00824.0414,W,14.73,134.73,040708,,,A*46
$GPGGA,174609.000,4011.4142,N,00824.0381,W,1,08,1.1,76.9,M,51.1,M,,0000*75
$GPGSA,A,3,14,29,02,05,09,30,31,12,,,,,1.9,1.1,1.5*3C
$GPRMC,174609.000,A,4011.4142,N,00824.0381,W,15.43,148.11,040708,,,A*47
$GPGGA,174610.000,4011.4102,N,00824.0355,W,1,08,1.1,76.6,M,51.1,M,,0000*7F
$GPGSA,A,3,14,29,02,05,09,30,31,12,,,,,1.9,1.1,1.5*3C
$GPRMC,174610.000,A,4011.4102,N,00824.0355,W,15.90,154.40,040708,,,A*45
$GPGGA,174611.000,4011.4063,N,00824.0329,W,1,08,1.1,76.3,M,51.1,M,,0000*76
$GPGSA,A,3,14,29,02,05,09,30,31,12,,,,,1.9,1.1,1.5*3C
$GPRMC,174611.000,A,4011.4063,N,00824.0329,W,15.89,151.12,040708,,,A*43
$GPGGA,174612.000,4011.4026,N,00824.0298,W,1,08,1.1,76.0,M,51.1,M,,0000*7C
$GPGSA,A,3,14,29,02,05,09,30,31,12,,,,,1.9,1.1,1.5*3C
$GPRMC,174612.000,A,4011.4026,N,00824.0298,W,15.17,141.02,040708,,,A*4D
$GPGGA,174613.000,4011.3998,N,00824.0256,W,1,08,1.1,76.0,M,51.1,M,,0000*74
$GPGSA,A,3,14,29,02,05,09,30,31,12,,,,,1.9,1.1,1.5*3C
$GPGSV,3,1,11,30,73,328,26,05,62,041,39,14,55,262,36,29,52,181,35*7B
$GPGSV,3,2,11,12,47,052,39,09,28,117,37,31,19,306,35,02,16,075,33*7B
$GPGSV,3,3,11,04,06,044,,24,03,148,18,32,02,318,*43
$GPRMC,174613.000,A,4011.3998,N,00824.0256,W,14.62,125.29,040708,,,A*4D
$GPGGA,174614.000,4011.3984,N,00824.0206,W,1,08,1.1,76.1,M,51.1,M,,0000*7A
$GPGSA,A,3,14,29,02,05,09,30,31,12,,,,,1.9,1.1,1.5*3C
$GPRMC,174614.000,A,4011.3984,N,00824.0206,W,14.15,105.72,040708,,,A*4E
$GPGGA,174615.000,4011.3986,N,00824.0157,W,1,08,1.1,75.7,M,51.1,M,,0000*7B
$GPGSA,A,3,14,29,02,05,09,30,31,12,,,,,1.9,1.1,1.5*3C
$GPRMC,174615.000,A,4011.3986,N,00824.0157,W,13.08,85.14,040708,,,A*78
$GPGGA,174616.000,4011.4003,N,00824.0113,W,1,08,1.1,75.1,M,51.1,M,,0000*7D
$GPGSA,A,3,14,29,02,05,09,30,31,12,,,,,1.9,1.1,1.5*3C
$GPRMC,174616.000,A,4011.4003,N,00824.0113,W,13.02,63.60,040708,,,A*79
$GPGGA,174617.000,4011.4034,N,00824.0082,W,1,08,1.1,74.9,M,51.1,M,,0000*78
$GPGSA,A,3,14,29,02,05,09,30,31,12,,,,,1.9,1.1,1.5*3C
$GPRMC,174617.000,A,4011.4034,N,00824.0082,W,11.82,38.30,040708,,,A*74
$GPGGA,174618.000,4011.4075,N,00824.0065,W,1,08,1.1,74.8,M,51.1,M,,0000*7A
$GPGSA,A,3,14,29,02,05,09,30,31,12,,,,,1.9,1.1,1.5*3C
$GPGSV,3,1,11,30,73,328,40,05,62,041,37,14,55,262,28,29,52,181,31*7E
$GPGSV,3,2,11,12,47,052,35,09,28,117,36,31,19,306,35,02,16,075,14*73
$GPGSV,3,3,11,04,06,044,13,24,03,148,24,32,02,318,*4E
$GPRMC,174618.000,A,4011.4075,N,00824.0065,W,13.65,19.43,040708,,,A*7B
$GPGGA,174619.000,4011.4121,N,00824.0048,W,1,08,1.1,74.1,M,51.1,M,,0000*7D
$GPGSA,A,3,14,29,02,05,09,30,31,12,,,,,1.9,1.1,1.5*3C
$GPRMC,174619.000,A,4011.4121,N,00824.0048,W,16.68,18.98,040708,,,A*7A
$GPGGA,174620.000,4011.4169,N,00824.0020,W,1,08,1.1,73.3,M,51.1,M,,0000*70
$GPGSA,A,3,14,29,02,05,09,30,31,12,,,,,1.9,1.1,1.5*3C
$GPRMC,174620.000,A,4011.4169,N,00824.0020,W,18.42,29.57,040708,,,A*75
$GPGGA,174621.000,4011.4218,N,00823.9981,W,1,08,1.1,73.1,M,51.1,M,,0000*7A
$GPGSA,A,3,14,29,02,05,09,30,31,12,,,,,1.9,1.1,1.5*3C
$GPRMC,174621.000,A,4011.4218,N,00823.9981,W,20.82,34.64,040708,,,A*76
$GPGGA,174622.000,4011.4271,N,00823.9934,W,1,08,1.1,72.9,M,51.1,M,,0000*71
$GPGSA,A,3,14,29,02,05,09,30,31,12,,,,,1.9,1.1,1.5*3C
$GPRMC,174622.000,A,4011.4271,N,00823.9934,W,23.13,35.09,040708,,,A*75
$GPGGA,174623.000,4011.4332,N,00823.9882,W,1,08,1.1,72.8,M,51.1,M,,0000*7B
$GPGSA,A,3,14,29,02,05,09,30,31,12,,,,,1.9,1.1,1.5*3C
$GPGSV,3,1,11,30,73,328,40,05,62,041,37,14,55,262,24,29,52,181,38*7B
$GPGSV,3,2,11,12,47,052,32,09,28,117,16,31,19,306,23,02,16,075,14*71
$GPGSV,3,3,11,04,06,044,,24,03,148,,32,02,318,17*4C
$GPRMC,174623.000,A,4011.4332,N,00823.9882,W,24.74,35.24,040708,,,A*77
$GPGGA,174624.000,4011.4394,N,00823.9828,W,1,07,1.3,72.5,M,51.1,M,,0000*70
$GPGSA,A,3,14,29,02,05,30,31,12,,,,,,2.1,1.3,1.6*3F
$GPRMC,174624.000,A,4011.4394,N,00823.9828,W,25.96,33.35,040708,,,A*77
$GPGGA,174625.000,4011.4453,N,00823.9775,W,1,06,2.4,72.2,M,51.1,M,,0000*78
$GPGSA,A,3,14,02,05,30,31,12,,,,,,,2.9,2.4,1.7*39
$GPRMC,174625.000,A,4011.4453,N,00823.9775,W,25.10,34.64,040708,,,A*70
$GPGGA,174626.000,4011.4517,N,00823.9719,W,1,08,1.1,72.0,M,51.1,M,,0000*7A
$GPGSA,A,3,14,29,02,05,09,30,31,12,,,,,1.9,1.1,1.5*3C
$GPRMC,174626.000,A,4011.4517,N,00823.9719,W,27.14,34.81,040708,,,A*75
$GPGGA,174627.000,4011.4588,N,00823.9662,W,1,08,1.1,71.7,M,51.1,M,,0000*74
$GPGSA,A,3,14,29,02,05,09,30,31,12,,,,,1.9,1.1,1.5*3C
$GPRMC,174627.000,A,4011.4588,N,00823.9662,W,28.58,32.12,040708,,,A*74
$GPGGA,174628.000,4011.4664,N,00823.9610,W,1,08,1.1,71.7,M,51.1,M,,0000*7F
$GPGSA,A,3,14,29,02,05,09,30,31,12,,,,,1.9,1.1,1.5*3C
$GPGSV,3,1,11,30,73,328,38,05,62,041,36,14,55,262,27,29,52,181,35*7B
$GPGSV,3,2,11,12,47,052,32,09,28,117,26,31,19,306,37,02,16,075,15*76
$GPGSV,3,3,11,04,06,044,,24,03,148,,32,02,318,*4A
$GPRMC,174628.000,A,4011.4664,N,00823.9610,W,29.32,27.22,040708,,,A*75
$GPGGA,174629.000,4011.4740,N,00823.9567,W,1,08,1.1,71.8,M,51.1,M,,0000*75
$GPGSA,A,3,14,29,02,05,09,30,31,12,,,,,1.9,1.1,1.5*3C
$GPRMC,174629.000,A,4011.4740,N,00823.9567,W,29.88,23.17,040708,,,A*73
$GPGGA,174630.000,4011.4826,N,00823.9530,W,1,08,1.1,72.1,M,51.1,M,,0000*7A
$GPGSA,A,3,14,29,02,05,09,30,31,12,,,,,1.9,1.1,1.5*3C
$GPRMC,174630.000,A,4011.4826,N,00823.9530,W,31.36,18.66,040708,,,A*74
$GPGGA,174631.000,4011.4922,N,00823.9502,W,1,08,1.1,72.6,M,51.1,M,,0000*78
$GPGSA,A,3,14,29,02,05,09,30,31,12,,,,,1.9,1.1,1.5*3C
$GPRMC,174631.000,A,4011.4922,N,00823.9502,W,34.16,13.32,040708,,,A*7C
$GPGGA,174632.000,4011.5025,N,00823.9476,W,1,08,1.1,72.2,M,51.1,M,,0000*72
$GPGSA,A,3,14,29,02,05,09,30,31,12,,,,,1.9,1.1,1.5*3C
$GPRMC,174632.000,A,4011.5025,N,00823.9476,W,35.50,12.13,040708,,,A*73
$GPGGA,174633.000,4011.5128,N,00823.9452,W,1,08,1.1,72.4,M,51.1,M,,0000*7F
$GPGSA,A,3,14,29,02,05,09,30,31,12,,,,,1.9,1.1,1.5*3C
$GPGSV,3,1,11,30,73,328,38,05,62,041,35,14,55,262,27,29,52,181,32*7F
$GPGSV,3,2,11,12,47,052,33,09,28,117,37,31,19,306,38,02,16,075,26*78
$GPGSV,3,3,11,04,06,044,19,24,03,148,,32,02,318,*42
$GPRMC,174633.000,A,4011.5128,N,00823.9452,W,37.04,11.69,040708,,,A*75
$GPGGA,174634.000,4011.5234,N,00823.9426,W,1,08,1.1,72.3,M,51.1,M,,0000*72
$GPGSA,A,3,14,29,02,05,09,30,31,12,,,,,1.9,1.1,1.5*3C
$GPRMC,174634.000,A,4011.5234,N,00823.9426,W,38.51,11.80,040708,,,A*77
$GPGGA,174635.000,4011.5343,N,00823.9398,W,1,08,1.1,72.1,M,51.1,M,,0000*72
$GPGSA,A,3,14,29,02,05,09,30,31,12,,,,,1.9,1.1,1.5*3C
$GPRMC,174635.000,A,4011.5343,N,00823.9398,W,39.36,11.88,040708,,,A*7D
$GPGGA,174636.000,4011.5453,N,00823.9370,W,1,08,1.1,71.9,M,51.1,M,,0000*7A
$GPGSA,A,3,14,29,02,05,09,30,31,12,,,,,1.9,1.1,1.5*3C
$GPRMC,174636.000,A,4011.5453,N,00823.9370,W,39.77,11.81,040708,,,A*72
$GPGGA,174637.000,4011.5562,N,00823.9342,W,1,08,1.1,71.8,M,51.1,M,,0000*78
$GPGSA,A,3,14,29,02,05,09,30,31,12,,,,,1.9,1.1,1.5*3C
$GPRMC,174637.000,A,4011.5562,N,00823.9342,W,39.47,11.56,040708,,,A*78
$GPGGA,174638.000,4011.5670,N,00823.9315,W,1,08,1.1,71.8,M,51.1,M,,0000*75
$GPGSA,A,3,14,29,02,05,09,30,31,12,,,,,1.9,1.1,1.5*3C
$GPGSV,3,1,11,30,73,328,39,05,62,041,36,14,55,262,27,29,52,181,32*7D
$GPGSV,3,2,11,12,47,052,34,09,28,117,31,31,19,306,38,02,16,075,18*74
$GPGSV,3,3,11,04,06,044,,24,03,148,,32,02,318,*4A
$GPRMC,174638.000,A,4011.5670,N,00823.9315,W,38.75,11.51,040708,,,A*72
$GPGGA,174639.000,4011.5777,N,00823.9286,W,1,08,1.1,71.5,M,51.1,M,,0000*74
$GPGSA,A,3,14,29,02,05,09,30,31,12,,,,,1.9,1.1,1.5*3C
$GPRMC,174639.000,A,4011.5777,N,00823.9286,W,37.07,12.10,040708,,,A*72