$GPGGA,132514.0,4010.956718,N,00824.696086,W,1,09,1.2,78.5,M,,,,*25
$GPRMC,132514.0,A,4010.956718,N,00824.696086,W,48.8,100.4,260508,,,A*4C
$GPGSA,A,3,02,07,08,10,15,24,25,28,255,,,,1.7,1.2,1.2*05
$GPVTG,100.4,T,,M,48.8,N,90.4,K*6C
$GPGSV,3,1,12,02,26,205,29,04,07,180,,07,26,045,29,08,65,060,30*7F
$GPGSV,3,2,12,10,78,316,30,13,05,075,,15,25,275,27,24,28,300,25*79
$GPGSV,3,3,12,25,08,045,24,26,35,279,19,27,33,046,,28,23,132,22*78
$GPGGA,132515.0,4010.954429,N,00824.678604,W,1,09,1.1,79.0,M,,,,*2C
$GPRMC,132515.0,A,4010.954429,N,00824.678604,W,48.6,99.7,260508,,,A*7E
$GPGSA,A,3,02,07,08,10,15,24,25,28,255,,,,1.7,1.1,1.2*06
$GPVTG,99.7,T,,M,48.6,N,90.1,K*55
$GPGSV,3,1,12,02,26,205,24,04,07,180,,07,26,045,26,08,65,060,29*75
$GPGSV,3,2,12,10,78,316,31,13,05,075,,15,25,275,24,24,28,300,24*7A
$GPGSV,3,3,12,25,08,045,24,26,35,279,19,27,33,046,,28,23,132,23*79
$GPGGA,132516.0,4010.952252,N,00824.661073,W,1,08,1.1,78.5,M,,,,*28
$GPRMC,132516.0,A,4010.952252,N,00824.661073,W,48.8,99.1,260508,,,A*77
$GPGSA,A,3,02,07,08,10,15,24,28,255,,,,,1.7,1.1,1.2*01
$GPVTG,99.1,T,,M,48.8,N,90.3,K*5F
$GPGSV,3,1,12,02,26,205,25,04,07,180,,07,26,045,26,08,65,060,29*74
$GPGSV,3,2,12,10,78,316,31,13,05,075,,15,25,275,24,24,28,300,23*7D
$GPGSV,3,3,12,25,08,045,24,26,35,279,19,27,33,046,,28,23,132,24*7E
$GPGGA,132517.0,4010.950265,N,00824.643566,W,1,08,1.1,78.5,M,,,,*2E
$GPRMC,132517.0,A,4010.950265,N,00824.643566,W,48.6,98.2,260508,,,A*7D
$GPGSA,A,3,02,08,10,15,24,28,255,255,,,,,1.7,1.1,1.3*35
$GPVTG,98.2,T,,M,48.6,N,90.0,K*50
$GPGSV,3,1,12,02,26,205,27,04,07,180,,07,26,045,28,08,65,060,29*78
$GPGSV,3,2,12,10,78,316,31,13,05,075,,15,25,275,21,24,28,300,21*7A
$GPGSV,3,3,12,25,08,045,20,26,35,279,19,27,33,046,,28,23,132,27*79
$GPGGA,132518.0,4010.948641,N,00824.625969,W,1,08,1.2,78.5,M,,,,*2A
$GPRMC,132518.0,A,4010.948641,N,00824.625969,W,48.7,96.9,260508,,,A*7E
$GPGSA,A,3,02,07,08,10,15,24,25,28,,,,,1.7,1.2,1.2*37
$GPVTG,96.9,T,,M,48.7,N,90.2,K*56
$GPGSV,3,1,12,02,26,205,27,04,07,180,,07,26,045,31,08,65,060,31*79
$GPGSV,3,2,12,10,78,316,32,13,05,075,,15,25,275,21,24,28,300,21*79
$GPGSV,3,3,12,25,08,045,22,26,35,279,19,27,33,046,,28,23,132,28*74
$GPGGA,132519.0,4010.947235,N,00824.608382,W,1,08,1.2,78.5,M,,,,*23
$GPRMC,132519.0,A,4010.947235,N,00824.608382,W,48.7,95.9,260508,,,A*74
$GPGSA,A,3,02,07,08,10,25,28,255,255,,,,,1.7,1.2,1.2*35
$GPVTG,95.9,T,,M,48.7,N,90.2,K*55
$GPGSV,3,1,12,02,26,205,26,04,07,180,,07,26,045,33,08,64,060,32*78
$GPGSV,3,2,12,10,78,316,30,13,05,075,,15,25,275,21,24,28,300,23*79
$GPGSV,3,3,12,25,07,045,22,26,35,279,19,27,33,046,,28,23,132,30*72
$GPGGA,132520.0,4010.946056,N,00824.590780,W,1,08,1.1,78.5,M,,,,*28
$GPRMC,132520.0,A,4010.946056,N,00824.590780,W,48.7,95.2,260508,,,A*77
$GPGSA,A,3,02,07,08,10,24,25,28,255,,,,,1.7,1.1,1.3*03
$GPVTG,95.2,T,,M,48.7,N,90.2,K*5E
$GPGSV,3,1,12,02,26,205,25,04,07,180,,07,26,045,34,08,64,060,35*7B
$GPGSV,3,2,12,10,78,316,29,13,05,075,,15,25,275,21,24,28,300,23*71
$GPGSV,3,3,12,25,07,045,21,26,35,279,19,27,33,046,,28,23,132,33*72
$GPGGA,132521.0,4010.945020,N,00824.573103,W,1,08,1.3,78.5,M,,,,*29
$GPRMC,132521.0,A,4010.945020,N,00824.573103,W,48.9,94.5,260508,,,A*7C
$GPGSA,A,3,02,07,08,10,24,25,28,255,,,,,2.0,1.3,1.4*02
$GPVTG,94.5,T,,M,48.9,N,90.5,K*51
$GPGSV,3,1,12,02,26,205,27,04,07,180,,07,26,045,34,08,64,060,36*7A
$GPGSV,3,2,12,10,78,316,28,13,05,075,,15,25,275,21,24,28,300,25*76
$GPGSV,3,3,12,25,07,045,22,26,35,281,19,27,33,046,,28,23,132,33*76
$GPGGA,132522.0,4010.944210,N,00824.555426,W,1,08,1.1,79.5,M,,,,*2F
$GPRMC,132522.0,A,4010.944210,N,00824.555426,W,48.9,93.6,260508,,,A*7D
$GPGSA,A,3,02,07,08,10,15,24,25,28,,,,,1.7,1.1,1.2*34
$GPVTG,93.6,T,,M,48.9,N,90.5,K*55
$GPGSV,3,1,12,02,26,205,29,04,07,180,,07,26,045,33,08,64,060,36*73
$GPGSV,3,2,12,10,78,316,27,13,05,075,,15,25,275,21,24,28,300,28*74
$GPGSV,3,3,12,25,07,045,22,26,35,281,19,27,33,046,,28,23,132,35*70
$GPGGA,132523.0,4010.943798,N,00824.537683,W,1,08,1.0,79.5,M,,,,*24
$GPRMC,132523.0,A,4010.943798,N,00824.537683,W,48.9,92.4,260508,,,A*74
$GPGSA,A,3,02,07,08,10,15,24,28,255,,,,,1.6,1.0,1.2*01
$GPVTG,92.4,T,,M,48.9,N,90.6,K*55
$GPGSV,3,1,12,02,26,205,28,04,07,180,,07,26,045,34,08,64,060,35*76
$GPGSV,3,2,12,10,78,316,28,13,05,075,,15,25,277,21,24,28,300,29*78
$GPGSV,3,3,12,25,07,045,22,26,35,281,19,27,33,046,,28,23,132,34*71
$GPGGA,132524.0,4010.943599,N,00824.519789,W,1,08,1.0,79.5,M,,,,*27
$GPRMC,132524.0,A,4010.943599,N,00824.519789,W,49.0,91.4,260508,,,A*7C
$GPGSA,A,3,02,07,08,10,24,28,255,255,,,,,1.6,1.0,1.2*37
$GPVTG,91.4,T,,M,49.0,N,90.7,K*5F
$GPGSV,3,1,12,02,26,205,29,04,07,180,,07,26,045,35,08,64,060,34*77
$GPGSV,3,2,12,10,78,316,30,13,05,075,,15,25,277,21,24,28,300,27*7F
$GPGSV,3,3,12,25,07,045,22,26,35,281,19,27,33,046,,28,23,132,32*77
$GPGGA,132525.0,4010.943514,N,00824.501890,W,1,08,1.1,79.5,M,,,,*2C
$GPRMC,132525.0,A,4010.943514,N,00824.501890,W,49.0,90.5,260508,,,A*76
$GPGSA,A,3,02,07,08,10,24,28,255,255,,,,,1.8,1.1,1.4*3E
$GPVTG,90.5,T,,M,49.0,N,90.8,K*50
$GPGSV,3,1,12,02,26,205,28,04,07,180,,07,26,045,36,08,64,060,34*75
$GPGSV,3,2,12,10,78,316,30,13,05,075,,15,25,277,21,24,28,300,25*7D
$GPGSV,3,3,12,25,07,045,22,26,35,281,19,27,33,046,,28,23,132,32*77
$GPGGA,132526.0,4010.943629,N,00824.483987,W,1,08,1.4,79.5,M,,,,*2B
$GPRMC,132526.0,A,4010.943629,N,00824.483987,W,49.1,89.9,260508,,,A*71
$GPGSA,A,3,02,07,08,10,24,28,255,255,,,,,2.2,1.4,1.7*31
$GPVTG,89.9,T,,M,49.1,N,90.9,K*54
$GPGSV,3,1,12,02,26,205,28,04,07,180,,07,26,045,37,08,64,060,34*74
$GPGSV,3,2,12,10,78,316,30,13,05,075,,15,25,277,21,24,28,300,21*79
$GPGSV,3,3,12,25,07,045,22,26,35,281,19,27,33,046,,28,23,132,31*74
$GPGGA,132527.0,4010.943949,N,00824.466068,W,1,08,1.6,79.5,M,,,,*22
$GPRMC,132527.0,A,4010.943949,N,00824.466068,W,49.2,89.1,260508,,,A*71
$GPGSA,A,3,02,07,08,10,24,28,255,255,,,,,2.3,1.6,1.7*32
$GPVTG,89.1,T,,M,49.2,N,91.1,K*56
$GPGSV,3,1,12,02,26,205,28,04,07,180,,07,26,045,37,08,64,060,33*73
$GPGSV,3,2,12,10,78,316,29,13,05,075,,15,25,277,21,24,28,300,21*71
$GPGSV,3,3,12,25,07,045,22,26,35,281,19,27,33,046,,28,23,132,28*7C
$GPGGA,132528.0,4010.944457,N,00824.448094,W,1,08,1.3,79.5,M,,,,*22
$GPRMC,132528.0,A,4010.944457,N,00824.448094,W,49.3,88.3,260508,,,A*76
$GPGSA,A,3,02,07,08,10,15,28,255,255,,,,,2.0,1.3,1.5*34
$GPVTG,88.3,T,,M,49.3,N,91.2,K*57
$GPGSV,3,1,12,02,26,205,30,04,07,180,20,07,26,045,37,08,64,060,33*78
$GPGSV,3,2,12,10,78,316,29,13,05,075,,15,25,277,24,24,28,300,21*74
$GPGSV,3,3,12,25,07,045,22,26,35,281,19,27,33,046,,28,23,132,26*72
$GPGGA,132529.0,4010.945120,N,00824.430235,W,1,07,1.4,79.5,M,,,,*29
$GPRMC,132529.0,A,4010.945120,N,00824.430235,W,49.1,87.4,260508,,,A*7F
$GPGSA,A,3,02,07,08,10,15,28,255,,,,,,2.0,1.4,1.4*00
$GPVTG,87.4,T,,M,49.1,N,90.9,K*57
$GPGSV,3,1,12,02,26,205,30,04,07,180,20,07,26,045,36,08,64,060,32*78
$GPGSV,3,2,12,10,78,316,29,13,05,075,,15,25,277,26,24,28,300,21*76
$GPGSV,3,3,12,25,07,045,22,26,35,281,,27,33,046,,28,23,132,23*7F
$GPGGA,132530.0,4010.945955,N,00824.412432,W,1,07,2.1,79.5,M,,,,*2C
$GPRMC,132530.0,A,4010.945955,N,00824.412432,W,48.4,86.5,260508,,,A*78
$GPGSA,A,3,02,07,08,10,15,28,255,,,,,,2.6,2.1,1.6*02
$GPVTG,86.5,T,,M,48.4,N,89.7,K*55
$GPGSV,3,1,12,02,26,205,31,04,07,180,29,07,26,045,36,08,64,060,31*73
$GPGSV,3,2,12,10,78,316,27,13,05,075,,15,25,277,27,24,28,300,21*79
$GPGSV,3,3,12,25,07,045,22,26,36,281,,27,33,046,,28,23,132,21*7E
$GPGGA,132531.0,4010.947062,N,00824.395066,W,1,08,1.7,79.5,M,,,,*25
$GPRMC,132531.0,A,4010.947062,N,00824.395066,W,47.4,85.5,260508,,,A*77
$GPGSA,A,3,02,04,07,08,10,15,28,255,,,,,2.3,1.7,1.4*04
$GPVTG,85.5,T,,M,47.4,N,87.8,K*58
$GPGSV,3,1,12,02,26,205,31,04,07,180,31,07,26,045,35,08,64,060,31*79
$GPGSV,3,2,12,10,78,316,28,13,05,075,,15,25,277,29,24,28,300,20*79
$GPGSV,3,3,12,25,07,045,22,26,36,281,,27,33,046,,28,23,132,21*7E
$GPGGA,132532.0,4010.948472,N,00824.377942,W,1,08,1.3,80.0,M,,,,*28
$GPRMC,132532.0,A,4010.948472,N,00824.377942,W,46.5,84.5,260508,,,A*7C
$GPGSA,A,3,02,04,07,08,10,15,24,255,,,,,1.9,1.3,1.3*02
$GPVTG,84.5,T,,M,46.5,N,86.1,K*51
$GPGSV,3,1,12,02,26,205,32,04,07,180,29,07,26,045,34,08,64,060,31*72
$GPGSV,3,2,12,10,78,316,29,13,05,075,,15,25,277,29,24,28,300,20*78
$GPGSV,3,3,12,25,07,045,22,26,36,281,,27,33,046,,28,23,132,21*7E
$GPGGA,132533.0,4010.949936,N,00824.361120,W,1,08,1.2,80.0,M,,,,*2F
$GPRMC,132533.0,A,4010.949936,N,00824.361120,W,46.1,83.7,260508,,,A*7B
$GPGSA,A,3,02,04,07,08,10,15,24,255,,,,,1.8,1.2,1.3*02
$GPVTG,83.7,T,,M,46.1,N,85.4,K*56
$GPGSV,3,1,12,02,26,205,32,04,07,180,26,07,26,045,32,08,64,060,27*7C
$GPGSV,3,2,12,10,78,316,27,13,05,075,,15,25,277,30,24,28,300,20*7E
$GPGSV,3,3,12,25,07,045,22,26,36,281,,27,33,046,,28,23,132,20*7F
$GPGGA,132534.0,4010.951540,N,00824.344619,W,1,08,1.0,80.5,M,,,,*21
$GPRMC,132534.0,A,4010.951540,N,00824.344619,W,45.4,82.8,260508,,,A*7A
$GPGSA,A,3,02,04,07,08,10,15,28,255,,,,,1.8,1.0,1.5*0A
$GPVTG,82.8,T,,M,45.4,N,84.2,K*59
$GPGSV,3,1,12,02,26,205,28,04,07,180,24,07,26,045,30,08,64,060,25*75
$GPGSV,3,2,12,10,78,316,26,13,05,075,,15,25,277,29,24,28,300,21*76
$GPGSV,3,3,12,25,07,045,22,26,36,281,,27,33,046,,28,23,132,24*7B
$GPGGA,132535.0,4010.953215,N,00824.328420,W,1,08,0.9,80.5,M,,,,*2F
$GPRMC,132535.0,A,4010.953215,N,00824.328420,W,44.5,82.3,260508,,,A*77
$GPGSA,A,3,02,04,07,08,10,15,24,28,,,,,1.8,0.9,1.5*36
$GPVTG,82.3,T,,M,44.5,N,82.4,K*52
$GPGSV,3,1,12,02,26,205,28,04,07,180,21,07,26,045,30,08,64,060,27*72
$GPGSV,3,2,12,10,78,316,26,13,05,075,,15,25,277,29,24,28,300,21*76
$GPGSV,3,3,12,25,07,045,22,26,36,281,,27,33,046,,28,23,132,23*7C
$GPGGA,132536.0,4010.954955,N,00824.312558,W,1,08,0.9,80.5,M,,,,*23
$GPRMC,132536.0,A,4010.954955,N,00824.312558,W,43.5,81.9,260508,,,A*75
$GPGSA,A,3,02,04,07,08,10,15,28,255,,,,,1.8,0.9,1.5*02
$GPVTG,81.9,T,,M,43.5,N,80.6,K*5C
$GPGSV,3,1,12,02,26,205,31,04,07,180,23,07,26,045,28,08,64,060,25*73
$GPGSV,3,2,12,10,78,316,26,13,05,075,,15,25,277,29,24,28,300,21*76
$GPGSV,3,3,12,25,07,045,22,26,36,281,,27,33,046,,28,23,132,22*7D
$GPGGA,132537.0,4010.956831,N,00824.297084,W,1,08,0.9,81.0,M,,,,*2F
$GPRMC,132537.0,A,4010.956831,N,00824.297084,W,42.6,80.9,260508,,,A*7E
$GPGSA,A,3,02,04,07,08,10,15,28,255,,,,,1.7,0.9,1.5*0D
$GPVTG,80.9,T,,M,42.6,N,78.8,K*56
$GPGSV,3,1,12,02,26,205,30,04,07,180,27,07,26,045,26,08,64,060,24*79
$GPGSV,3,2,12,10,78,316,26,13,05,075,,15,25,277,28,24,28,300,21*77
$GPGSV,3,3,12,25,07,045,22,26,36,281,,27,33,046,,28,23,132,24*7B
$GPGGA,132538.0,4010.958933,N,00824.281896,W,1,08,0.9,81.0,M,,,,*21
$GPRMC,132538.0,A,4010.958933,N,00824.281896,W,42.0,79.7,260508,,,A*7E
$GPGSA,A,3,02,04,07,08,10,15,24,28,,,,,1.8,0.9,1.6*35
$GPVTG,79.7,T,,M,42.0,N,77.8,K*57
$GPGSV,3,1,12,02,26,205,29,04,07,180,27,07,26,045,25,08,64,060,24*72
$GPGSV,3,2,12,10,78,316,26,13,05,075,,15,25,277,28,24,28,300,23*75
$GPGSV,3,3,12,25,07,045,22,26,36,281,,27,33,046,,28,23,132,23*7C
$GPGGA,132539.0,4010.961123,N,00824.266979,W,1,08,0.9,81.5,M,,,,*2F
$GPRMC,132539.0,A,4010.961123,N,00824.266979,W,41.7,78.9,260508,,,A*7E
$GPGSA,A,3,02,04,07,08,10,15,24,28,,,,,1.8,0.9,1.6*35
$GPVTG,78.9,T,,M,41.7,N,77.2,K*56
$GPGSV,3,1,12,02,26,205,26,04,07,180,27,07,26,045,26,08,64,060,24*7E
$GPGSV,3,2,12,10,78,316,25,13,05,075,,15,25,277,28,24,28,300,22*77
$GPGSV,3,3,12,25,07,045,22,26,36,281,,27,33,046,,28,23,132,25*7A
$GPGGA,132540.0,4010.963437,N,00824.252299,W,1,08,0.9,81.5,M,,,,*21
$GPRMC,132540.0,A,4010.963437,N,00824.252299,W,41.0,78.4,260508,,,A*7A
$GPGSA,A,3,02,04,07,08,10,15,24,28,,,,,1.8,0.9,1.6*35
$GPVTG,78.4,T,,M,41.0,N,76.0,K*5F
$GPGSV,3,1,12,02,26,205,27,04,07,180,24,07,26,045,26,08,64,060,24*7C
$GPGSV,3,2,12,10,78,316,25,13,05,075,,15,25,277,28,24,28,300,24*71
$GPGSV,3,3,12,25,07,045,22,26,36,281,,27,33,046,,28,23,132,27*78
$GPGGA,132541.0,4010.965825,N,00824.237946,W,1,08,0.9,81.5,M,,,,*23
$GPRMC,132541.0,A,4010.965825,N,00824.237946,W,40.1,77.7,260508,,,A*74
$GPGSA,A,3,02,04,07,08,10,15,24,28,,,,,1.8,0.9,1.6*35
$GPVTG,77.7,T,,M,40.1,N,74.3,K*52
$GPGSV,3,1,12,02,26,205,25,04,07,180,24,07,26,045,22,08,64,060,24*7A
$GPGSV,3,2,12,10,78,316,25,13,05,075,,15,25,277,28,24,28,300,26*73
$GPGSV,3,3,12,25,07,045,22,26,36,281,,27,33,046,,28,23,132,29*76
$GPGGA,132542.0,4010.968267,N,00824.223990,W,1,08,1.0,81.5,M,,,,*27
$GPRMC,132542.0,A,4010.968267,N,00824.223990,W,39.0,76.8,260508,,,A*79
$GPGSA,A,3,02,07,08,15,24,28,255,255,,,,,2.0,1.0,1.7*32
$GPVTG,76.8,T,,M,39.0,N,72.2,K*54
$GPGSV,3,1,12,02,26,205,28,04,07,180,20,07,26,045,20,08,64,060,25*70
$GPGSV,3,2,12,10,78,316,20,13,05,075,,15,25,277,29,24,28,300,23*72
$GPGSV,3,3,12,25,07,045,,26,36,281,,27,33,046,,28,23,132,30*7E
$GPGGA,132543.0,4010.970824,N,00824.210648,W,1,08,0.9,82.0,M,,,,*26
$GPRMC,132543.0,A,4010.970824,N,00824.210648,W,37.0,76.0,260508,,,A*70
$GPGSA,A,3,02,04,07,08,10,15,24,28,,,,,2.2,0.9,2.0*39
$GPVTG,76.0,T,,M,37.0,N,68.5,K*5E
$GPGSV,3,1,12,02,26,205,27,04,07,180,23,07,26,045,20,08,64,060,27*7E
$GPGSV,3,2,12,10,78,316,23,13,05,075,,15,25,277,29,24,28,300,24*76
$GPGSV,3,3,12,25,07,045,,26,36,281,,27,33,046,,28,23,132,28*77
$GPGGA,132544.0,4010.973352,N,00824.198201,W,1,08,1.0,82.0,M,,,,*2A
$GPRMC,132544.0,A,4010.973352,N,00824.198201,W,34.6,75.5,260508,,,A*77
$GPGSA,A,3,02,04,08,10,15,24,28,255,,,,,2.2,1.0,2.0*04
$GPVTG,75.5,T,,M,34.6,N,64.0,K*54
$GPGSV,3,1,12,02,26,205,26,04,07,180,25,07,26,045,20,08,64,060,27*79
$GPGSV,3,2,12,10,78,316,22,13,05,075,,15,25,277,27,24,28,300,22*7F
$GPGSV,3,3,12,25,07,045,,26,36,281,,27,33,046,,28,23,132,26*79
$GPGGA,132545.0,4010.975617,N,00824.186795,W,1,08,1.0,82.5,M,,,,*2B
$GPRMC,132545.0,A,4010.975617,N,00824.186795,W,31.0,75.4,260508,,,A*71
$GPGSA,A,3,02,04,08,10,15,24,28,255,,,,,2.1,1.0,1.9*0D
$GPVTG,75.4,T,,M,31.0,N,57.5,K*53
$GPGSV,3,1,12,02,26,205,28,04,07,180,25,07,26,045,20,08,64,060,24*74
$GPGSV,3,2,12,10,78,316,23,13,05,075,,15,25,277,28,24,28,300,24*77
$GPGSV,3,3,12,25,07,045,,26,36,281,,27,33,046,,28,23,132,28*77
$GPGGA,132546.0,4010.977747,N,00824.176902,W,1,08,1.2,82.5,M,,,,*23
$GPRMC,132546.0,A,4010.977747,N,00824.176902,W,26.8,74.3,260508,,,A*73
$GPGSA,A,3,02,04,08,10,15,24,28,255,,,,,2.6,1.2,2.3*01
$GPVTG,74.3,T,,M,26.8,N,49.6,K*57
$GPGSV,3,1,12,02,26,205,29,04,07,180,27,07,26,045,22,08,64,060,24*75
$GPGSV,3,2,12,10,78,316,21,13,05,075,,15,25,277,28,24,28,300,26*77
$GPGSV,3,3,12,25,07,045,,26,36,281,,27,33,046,,28,23,132,29*76
$GPGGA,132547.0,4010.979673,N,00824.168790,W,1,08,0.9,82.5,M,,,,*2A
$GPRMC,132547.0,A,4010.979673,N,00824.168790,W,21.5,73.6,260508,,,A*78
$GPGSA,A,3,02,04,07,08,10,15,24,28,,,,,2.1,0.9,1.9*30
$GPVTG,73.6,T,,M,21.5,N,39.8,K*56
$GPGSV,3,1,12,02,26,205,28,04,07,180,26,07,26,045,22,08,64,060,24*75
$GPGSV,3,2,12,10,78,316,21,13,05,075,,15,25,277,28,24,28,300,25*74
$GPGSV,3,3,12,25,07,045,,26,36,281,,27,33,046,,28,23,132,25*7A
$GPGGA,132548.0,4010.981205,N,00824.162564,W,1,08,0.9,83.0,M,,,,*20
$GPRMC,132548.0,A,4010.981205,N,00824.162564,W,16.6,73.3,260508,,,A*74
$GPGSA,A,3,02,04,08,10,15,24,28,255,,,,,2.2,0.9,2.0*0C
$GPVTG,73.3,T,,M,16.6,N,30.8,K*5D
$GPGSV,3,1,12,02,26,205,23,04,07,180,24,07,26,045,25,08,64,060,26*79
$GPGSV,3,2,12,10,78,316,25,13,05,075,,15,25,277,25,24,28,300,26*7E
$GPGSV,3,3,12,25,07,045,,26,36,281,,27,33,046,,28,23,132,24*7B
$GPGGA,132549.0,4010.982698,N,00824.157942,W,1,08,0.9,83.0,M,,,,*2C
$GPRMC,132549.0,A,4010.982698,N,00824.157942,W,12.7,66.1,260508,,,A*7B
$GPGSA,A,3,02,04,07,08,10,15,24,28,,,,,2.0,0.9,1.7*3F
$GPVTG,66.1,T,,M,12.7,N,23.6,K*52
$GPGSV,3,1,12,02,26,205,23,04,07,180,21,07,26,045,28,08,64,060,29*7E
$GPGSV,3,2,12,10,78,316,31,13,05,075,,15,25,277,27,24,28,300,25*7A
$GPGSV,3,3,12,25,07,045,,26,36,281,,27,33,046,,28,23,132,25*7A
$GPGGA,132550.0,4010.984609,N,00824.155337,W,1,08,0.9,83.0,M,,,,*20
$GPRMC,132550.0,A,4010.984609,N,00824.155337,W,9.7,41.4,260508,,,A*4D
$GPGSA,A,3,02,04,07,08,10,15,24,28,,,,,1.9,0.9,1.6*34
$GPVTG,41.4,T,,M,9.7,N,18.0,K*66
$GPGSV,3,1,12,02,26,205,23,04,07,180,21,07,26,045,27,08,64,060,26*7E
$GPGSV,3,2,12,10,78,316,29,13,05,075,,15,25,277,26,24,28,300,35*73
$GPGSV,3,3,12,25,07,045,,26,36,281,,27,33,046,,28,23,132,21*7E
$GPGGA,132551.0,4010.987240,N,00824.155146,W,1,08,0.9,82.5,M,,,,*2B
$GPRMC,132551.0,A,4010.987240,N,00824.155146,W,8.4,4.3,260508,,,A*76
$GPGSA,A,3,02,04,07,08,10,15,24,28,,,,,1.8,0.9,1.5*36
$GPVTG,4.3,T,,M,8.4,N,15.5,K*5A
$GPGSV,3,1,12,02,26,205,22,04,07,180,24,07,25,045,24,08,64,060,25*79
$GPGSV,3,2,12,10,78,316,30,13,05,075,,15,25,277,37,24,28,300,34*7A
$GPGSV,3,3,12,25,07,045,,26,36,281,,27,33,046,,28,23,132,21*7E
$GPGGA,132552.0,4010.989762,N,00824.156605,W,1,08,1.4,82.0,M,,,,*29
$GPRMC,132552.0,A,4010.989762,N,00824.156605,W,8.4,339.3,260508,,,A*70
$GPGSA,A,3,02,04,07,08,10,15,24,255,,,,,2.7,1.4,2.3*0B
$GPVTG,339.3,T,,M,8.4,N,15.6,K*54
$GPGSV,3,1,12,02,26,205,23,04,07,180,22,07,25,045,21,08,64,060,25*7B
$GPGSV,3,2,12,10,78,316,26,13,05,075,,15,25,277,39,24,28,300,35*72
$GPGSV,3,3,12,25,07,045,,26,36,281,,27,33,046,,28,23,132,21*7E
$GPGGA,132553.0,4010.992191,N,00824.158259,W,1,08,1.6,81.0,M,,,,*2A
$GPRMC,132553.0,A,4010.992191,N,00824.158259,W,8.7,341.0,260508,,,A*7D
$GPGSA,A,3,02,04,07,08,10,15,24,255,,,,,3.0,1.6,2.5*09
$GPVTG,341.0,T,,M,8.7,N,16.0,K*5E
$GPGSV,3,1,12,02,26,205,23,04,07,180,22,07,25,045,27,08,64,060,24*7C
$GPGSV,3,2,12,10,78,316,28,13,05,075,,15,25,277,33,24,28,300,39*7A
$GPGSV,3,3,12,25,07,045,,26,36,281,,27,33,046,,28,23,132,21*7E
$GPGGA,132554.0,4010.994982,N,00824.159557,W,1,08,1.5,81.0,M,,,,*2A
$GPRMC,132554.0,A,4010.994982,N,00824.159557,W,11.8,343.3,260508,,,A*48
$GPGSA,A,3,04,07,08,10,15,24,255,255,,,,,2.7,1.5,2.2*3B
$GPVTG,343.3,T,,M,11.8,N,21.8,K*64
$GPGSV,3,1,12,02,26,205,23,04,07,180,22,07,25,045,28,08,64,060,25*72
$GPGSV,3,2,12,10,78,316,27,13,05,075,,15,25,277,33,24,28,300,37*7B
$GPGSV,3,3,12,25,07,045,,26,36,281,,27,33,046,,28,23,132,25*7A
$GPGGA,132555.0,4010.998907,N,00824.161216,W,1,08,1.2,81.0,M,,,,*24
$GPRMC,132555.0,A,4010.998907,N,00824.161216,W,15.8,343.6,260508,,,A*40
$GPGSA,A,3,04,07,08,10,15,24,28,255,,,,,2.3,1.2,1.9*08
$GPVTG,343.6,T,,M,15.8,N,29.3,K*66
$GPGSV,3,1,12,02,26,203,21,04,07,180,24,07,25,045,29,08,64,060,31*74
$GPGSV,3,2,12,10,78,316,25,13,05,075,,15,25,277,31,24,28,300,37*7B
$GPGSV,3,3,12,25,07,045,,26,36,281,,27,33,046,,28,23,132,27*78
$GPGGA,132556.0,4011.003881,N,00824.163308,W,1,08,1.1,81.0,M,,,,*2D
$GPRMC,132556.0,A,4011.003881,N,00824.163308,W,19.0,345.1,260508,,,A*4F
$GPGSA,A,3,02,04,07,08,10,15,24,28,,,,,2.2,1.1,1.9*3A
$GPVTG,345.1,T,,M,19.0,N,35.2,K*6F
$GPGSV,3,1,12,02,26,203,20,04,07,180,24,07,25,045,30,08,64,060,31*7D
$GPGSV,3,2,12,10,78,316,26,13,05,075,,15,25,277,28,24,28,300,36*71
$GPGSV,3,3,12,25,07,045,,26,36,281,,27,33,046,,28,23,132,27*78
$GPGGA,132557.0,4011.009675,N,00824.165290,W,1,08,1.1,81.5,M,,,,*20
$GPRMC,132557.0,A,4011.009675,N,00824.165290,W,21.3,347.0,260508,,,A*4C
$GPGSA,A,3,02,04,07,10,15,24,255,255,,,,,2.1,1.1,1.8*3A
$GPVTG,347.0,T,,M,21.3,N,39.5,K*6F
$GPGSV,3,1,12,02,26,203,20,04,07,180,22,07,25,045,28,08,64,060,23*71
$GPGSV,3,2,12,10,78,316,21,13,05,075,,15,25,277,30,24,28,300,36*7F
$GPGSV,3,3,12,25,07,045,,26,36,281,,27,33,046,,28,23,132,24*7B
$GPGGA,132558.0,4011.015531,N,00824.167221,W,1,08,1.0,82.0,M,,,,*2E
$GPRMC,132558.0,A,4011.015531,N,00824.167221,W,21.4,347.2,260508,,,A*40
$GPGSA,A,3,04,07,08,10,15,24,28,255,,,,,2.7,1.0,2.5*01
$GPVTG,347.2,T,,M,21.4,N,39.6,K*69
$GPGSV,3,1,12,02,26,203,20,04,07,180,23,07,25,045,27,08,64,060,20*7C
$GPGSV,3,2,12,10,78,316,24,13,05,075,,15,25,277,28,24,28,300,36*73
$GPGSV,3,3,12,25,07,045,,26,36,281,,27,33,046,,28,23,132,20*7F
$GPGGA,132559.0,4011.021538,N,00824.169258,W,1,08,1.1,82.5,M,,,,*25
$GPRMC,132559.0,A,4011.021538,N,00824.169258,W,22.7,346.0,260508,,,A*4C
$GPGSA,A,3,04,07,08,10,15,24,28,255,,,,,2.7,1.1,2.5*00
$GPVTG,346.0,T,,M,22.7,N,42.0,K*60
$GPGSV,3,1,12,02,26,203,26,04,07,180,20,07,25,045,27,08,64,060,22*7B
$GPGSV,3,2,12,10,78,316,21,13,05,075,,15,25,277,31,24,28,300,35*7D
$GPGSV,3,3,12,25,07,045,,26,36,281,,27,33,046,,28,23,132,20*7F
$GPGGA,132600.0,4011.027832,N,00824.171571,W,1,08,0.9,82.5,M,,,,*27
$GPRMC,132600.0,A,4011.027832,N,00824.171571,W,23.8,343.9,260508,,,A*45
$GPGSA,A,3,02,04,07,08,10,15,24,255,,,,,3.2,0.9,3.0*01
$GPVTG,343.9,T,,M,23.8,N,44.1,K*65
$GPGSV,3,1,12,02,26,203,27,04,07,180,22,07,25,045,25,08,64,060,27*7F
$GPGSV,3,2,12,10,78,316,21,13,05,075,,15,25,277,31,24,28,300,34*7C
$GPGSV,3,3,12,25,07,045,,26,36,281,,27,33,046,,28,23,132,20*7F
$GPGGA,132601.0,4011.034471,N,00824.174302,W,1,08,1.0,83.5,M,,,,*21
$GPRMC,132601.0,A,4011.034471,N,00824.174302,W,25.1,343.4,260508,,,A*48
$GPGSA,A,3,02,04,07,08,10,24,255,255,,,,,3.0,1.0,2.8*34
$GPVTG,343.4,T,,M,25.1,N,46.4,K*60
$GPGSV,3,1,12,02,26,203,26,04,07,180,23,07,25,045,24,08,64,060,29*70
$GPGSV,3,2,12,10,78,316,21,13,05,075,,15,25,277,31,24,28,300,36*7E
$GPGSV,3,3,12,25,07,045,,26,36,281,,27,33,046,,28,23,132,20*7F
$GPGGA,132602.0,4011.041313,N,00824.177083,W,1,08,1.2,84.0,M,,,,*2A
$GPRMC,132602.0,A,4011.041313,N,00824.177083,W,25.7,343.5,260508,,,A*44
$GPGSA,A,3,02,04,07,08,24,255,255,255,,,,,3.1,1.2,2.9*05
$GPVTG,343.5,T,,M,25.7,N,47.7,K*65
$GPGSV,3,1,12,02,26,203,27,04,07,180,22,07,25,045,27,08,64,060,30*7B
$GPGSV,3,2,12,10,78,316,20,13,05,075,,15,25,277,22,24,28,300,37*7C
$GPGSV,3,3,12,25,07,045,,26,36,281,,27,33,046,,28,23,132,20*7F
$GPGGA,132603.0,4011.048288,N,00824.180171,W,1,08,1.1,84.5,M,,,,*23
$GPRMC,132603.0,A,4011.048288,N,00824.180171,W,26.2,343.0,260508,,,A*48
$GPGSA,A,3,02,04,07,08,10,15,24,255,,,,,2.9,1.1,2.7*04
$GPVTG,343.0,T,,M,26.2,N,48.6,K*68
$GPGSV,3,1,12,02,26,203,26,04,07,180,20,07,25,045,26,08,64,060,31*78
$GPGSV,3,2,12,10,78,316,24,13,05,075,,15,25,277,24,24,28,300,36*7F
$GPGSV,3,3,12,25,07,045,,26,36,281,,27,33,046,,28,23,132,20*7F
$GPGGA,132604.0,4011.055372,N,00824.183189,W,1,08,1.1,85.5,M,,,,*29
$GPRMC,132604.0,A,4011.055372,N,00824.183189,W,26.8,343.5,260508,,,A*4C
$GPGSA,A,3,02,04,07,08,10,15,24,255,,,,,2.8,1.1,2.6*04
$GPVTG,343.5,T,,M,26.8,N,49.6,K*66
$GPGSV,3,1,12,02,26,203,28,04,07,180,23,07,25,045,29,08,64,060,29*73
$GPGSV,3,2,12,10,78,316,22,13,05,075,,15,25,277,20,24,28,300,35*7E
$GPGSV,3,3,12,25,07,045,,26,36,281,,27,33,046,,28,23,132,20*7F
$GPGGA,132605.0,4011.062704,N,00824.186216,W,1,08,1.0,86.5,M,,,,*2B
$GPRMC,132605.0,A,4011.062704,N,00824.186216,W,27.6,343.2,260508,,,A*44
$GPGSA,A,3,02,04,07,08,10,15,24,255,,,,,2.5,1.0,2.3*0D
$GPVTG,343.2,T,,M,27.6,N,51.1,K*60
$GPGSV,3,1,12,02,26,203,26,04,07,180,21,07,25,045,25,08,64,060,28*72
$GPGSV,3,2,12,10,78,316,23,13,05,075,,15,25,277,25,24,28,300,35*7A
$GPGSV,3,3,12,25,07,045,,26,36,281,,27,33,046,,28,23,132,20*7F
$GPGGA,132606.0,4011.070117,N,00824.189264,W,1,07,1.1,87.0,M,,,,*2F
$GPRMC,132606.0,A,4011.070117,N,00824.189264,W,27.8,343.3,260508,,,A*45
$GPGSA,A,3,02,04,07,08,10,15,24,,,,,,2.5,1.1,2.3*3E
$GPVTG,343.3,T,,M,27.8,N,51.6,K*68
$GPGSV,3,1,12,02,26,203,27,04,07,180,23,07,25,045,27,08,64,060,27*7C
$GPGSV,3,2,12,10,78,316,23,13,05,075,,15,25,277,36,24,28,300,35*78
$GPGSV,3,3,12,25,07,045,,26,36,281,,27,33,046,,28,23,132,17*7B
$GPGGA,132607.0,4011.077457,N,00824.192523,W,1,07,1.4,88.0,M,,,,*2C
$GPRMC,132607.0,A,4011.077457,N,00824.192523,W,27.9,343.4,260508,,,A*4A
$GPGSA,A,3,02,04,07,08,10,15,24,,,,,,3.5,1.4,3.2*3A
$GPVTG,343.4,T,,M,27.9,N,51.6,K*6E
$GPGSV,3,1,12,02,26,203,26,04,07,180,22,07,25,045,27,08,64,060,27*7C
$GPGSV,3,2,12,10,78,316,23,13,04,075,,15,25,277,36,24,28,300,35*79
$GPGSV,3,3,12,25,07,045,,26,36,281,,27,33,046,,28,23,132,17*7B
$GPGGA,132608.0,4011.084838,N,00824.195550,W,1,08,1.2,89.0,M,,,,*21
$GPRMC,132608.0,A,4011.084838,N,00824.195550,W,27.5,343.4,260508,,,A*43
$GPGSA,A,3,02,04,07,08,10,15,24,28,,,,,3.0,1.2,2.8*38
$GPVTG,343.4,T,,M,27.5,N,51.0,K*64
$GPGSV,3,1,12,02,26,203,27,04,07,180,22,07,25,045,28,08,64,060,27*72
$GPGSV,3,2,12,10,78,316,24,13,04,075,,15,25,277,36,24,28,300,35*7E
$GPGSV,3,3,12,25,07,045,,26,36,281,,27,33,046,,28,23,132,17*7B
$GPGGA,132609.0,4011.092190,N,00824.198568,W,1,08,1.2,89.5,M,,,,*2F
$GPRMC,132609.0,A,4011.092190,N,00824.198568,W,27.3,343.5,260508,,,A*4F
$GPGSA,A,3,02,07,08,10,15,24,255,255,,,,,3.0,1.2,2.7*39
$GPVTG,343.5,T,,M,27.3,N,50.6,K*64
$GPGSV,3,1,12,02,26,203,26,04,07,180,22,07,25,045,28,08,64,060,27*73
$GPGSV,3,2,12,10,78,316,23,13,04,075,16,15,25,277,36,24,28,300,35*7E
$GPGSV,3,3,12,25,07,045,,26,36,281,,27,33,046,,28,23,132,17*7B
$GPGGA,132610.0,4011.099482,N,00824.201570,W,1,08,1.2,90.5,M,,,,*28
$GPRMC,132610.0,A,4011.099482,N,00824.201570,W,27.6,343.2,260508,,,A*42
$GPGSA,A,3,02,07,08,10,15,24,255,255,,,,,3.0,1.2,2.8*36
$GPVTG,343.2,T,,M,27.6,N,51.2,K*63
$GPGSV,3,1,12,02,26,203,28,04,07,180,22,07,25,045,28,08,64,060,29*73
$GPGSV,3,2,12,10,78,316,22,13,04,075,16,15,25,277,37,24,28,300,35*7E
$GPGSV,3,3,12,25,07,045,,26,36,281,,27,33,046,,28,23,132,17*7B
$GPGGA,132611.0,4011.106988,N,00824.204678,W,1,08,1.3,91.0,M,,,,*22
$GPRMC,132611.0,A,4011.106988,N,00824.204678,W,28.1,343.2,260508,,,A*45
$GPGSA,A,3,02,04,07,08,10,15,24,255,,,,,3.3,1.3,3.0*0B
$GPVTG,343.2,T,,M,28.1,N,52.0,K*6A
$GPGSV,3,1,12,02,26,203,27,04,07,180,23,07,25,045,28,08,64,060,29*7D
$GPGSV,3,2,12,10,78,315,24,13,04,075,19,15,25,277,37,24,28,300,34*75
$GPGSV,3,3,12,25,07,045,,26,36,281,,27,33,046,,28,23,132,17*7B
$GPGGA,132612.0,4011.114527,N,00824.207706,W,1,08,1.3,92.5,M,,,,*26
$GPRMC,132612.0,A,4011.114527,N,00824.207706,W,27.9,342.9,260508,,,A*4A
$GPGSA,A,3,02,04,07,08,10,15,24,255,,,,,3.3,1.3,3.0*0B
$GPVTG,342.9,T,,M,27.9,N,51.6,K*62
$GPGSV,3,1,12,02,26,203,26,04,07,180,21,07,25,045,28,08,64,060,30*76
$GPGSV,3,2,12,10,78,315,23,13,04,075,19,15,25,277,37,24,28,300,35*73
$GPGSV,3,3,12,25,07,045,,26,36,281,,27,33,046,,28,23,132,17*7B
$GPGGA,132613.0,4011.121789,N,00824.210683,W,1,08,1.2,93.0,M,,,,*28
$GPRMC,132613.0,A,4011.121789,N,00824.210683,W,26.7,342.7,260508,,,A*40
$GPGSA,A,3,02,04,07,08,10,15,24,28,,,,,2.9,1.2,2.6*3E
$GPVTG,342.7,T,,M,26.7,N,49.4,K*68
$GPGSV,3,1,12,02,26,203,28,04,07,180,24,07,25,045,28,08,64,060,31*7C
$GPGSV,3,2,12,10,78,315,23,13,04,075,19,15,25,277,37,24,28,300,34*72
$GPGSV,3,3,12,25,07,045,,26,36,281,,27,33,046,,28,23,132,17*7B
$GPGGA,132614.0,4011.128913,N,00824.213721,W,1,08,1.2,94.0,M,,,,*26
$GPRMC,132614.0,A,4011.128913,N,00824.213721,W,26.0,342.5,260508,,,A*4C
$GPGSA,A,3,02,04,07,08,10,15,24,255,,,,,2.9,1.2,2.6*06
$GPVTG,342.5,T,,M,26.0,N,48.1,K*69
$GPGSV,3,1,12,02,26,203,25,04,07,180,20,07,25,045,27,08,64,060,33*78
$GPGSV,3,2,12,10,78,315,28,13,04,075,16,15,25,277,38,24,28,300,35*78
$GPGSV,3,3,12,25,07,045,,26,36,281,34,27,33,046,,28,23,132,17*7C
$GPGGA,132615.0,4011.135841,N,00824.216642,W,1,10,1.2,94.5,M,,,,*20
$GPRMC,132615.0,A,4011.135841,N,00824.216642,W,25.9,343.0,260508,,,A*48
$GPGSA,A,3,02,04,07,08,10,13,15,24,26,255,,,2.5,1.2,2.1*0B
$GPVTG,343.0,T,,M,25.9,N,47.9,K*60
$GPGSV,3,1,12,02,26,203,26,04,07,180,20,07,25,045,29,08,64,060,26*71
$GPGSV,3,2,12,10,78,315,24,13,04,075,16,15,25,277,37,24,28,300,35*7B
$GPGSV,3,3,12,25,07,045,,26,36,281,34,27,33,046,,28,23,132,17*7C
$GPGGA,132616.0,4011.142811,N,00824.219569,W,1,10,1.3,95.5,M,,,,*23
$GPRMC,132616.0,A,4011.142811,N,00824.219569,W,26.7,343.7,260508,,,A*41
$GPGSA,A,3,02,07,08,10,15,24,26,255,255,255,,,2.8,1.3,2.4*04
$GPVTG,343.7,T,,M,26.7,N,49.5,K*68
$GPGSV,3,1,12,02,26,203,27,04,07,180,20,07,25,045,32,08,64,060,22*7E
$GPGSV,3,2,12,10,78,315,27,13,04,075,16,15,25,277,34,24,28,300,34*7A
$GPGSV,3,3,12,25,07,045,,26,36,281,34,27,33,046,,28,23,132,17*7C
$GPGGA,132617.0,4011.149857,N,00824.222532,W,1,10,1.2,96.5,M,,,,*2F
$GPRMC,132617.0,A,4011.149857,N,00824.222532,W,26.9,343.1,260508,,,A*47
$GPGSA,A,3,02,07,08,10,15,24,26,255,255,255,,,2.7,1.2,2.4*0A
$GPVTG,343.1,T,,M,26.9,N,49.8,K*6D
$GPGSV,3,1,12,02,26,203,26,04,07,180,21,07,25,045,29,08,64,060,23*75
$GPGSV,3,2,12,10,78,315,26,13,04,075,16,15,25,277,35,24,28,300,34*7A
$GPGSV,3,3,12,25,07,045,,26,36,281,35,27,33,046,,28,23,132,17*7D
$GPGGA,132618.0,4011.156845,N,00824.225534,W,1,10,1.4,98.0,M,,,,*21
$GPRMC,132618.0,A,4011.156845,N,00824.225534,W,26.1,342.8,260508,,,A*44
$GPGSA,A,3,02,04,07,08,10,15,24,26,255,255,,,3.0,1.4,2.6*3E
$GPVTG,342.8,T,,M,26.1,N,48.4,K*60
$GPGSV,3,1,12,02,26,203,30,04,07,180,21,07,25,045,30,08,64,060,25*7C
$GPGSV,3,2,12,10,78,315,31,13,04,075,16,15,25,277,35,24,28,300,26*7F
$GPGSV,3,3,12,25,07,045,,26,36,281,32,27,33,046,,28,23,132,17*7A
$GPGGA,132619.0,4011.163395,N,00824.228421,W,1,10,1.3,99.0,M,,,,*2E
$GPRMC,132619.0,A,4011.163395,N,00824.228421,W,23.6,340.7,260508,,,A*42
$GPGSA,A,3,02,07,08,10,15,24,26,255,255,255,,,2.5,1.3,2.2*0F
$GPVTG,340.7,T,,M,23.6,N,43.7,K*67
$GPGSV,3,1,12,02,26,203,34,04,07,180,21,07,25,045,23,08,64,060,34*7A
$GPGSV,3,2,12,10,78,315,31,13,04,075,16,15,25,277,37,24,28,300,30*7A
$GPGSV,3,3,12,25,07,045,,26,36,281,31,27,33,046,,28,23,132,17*79
$GPGGA,132620.0,4011.169284,N,00824.231398,W,1,09,1.5,99.5,M,,,,*29
$GPRMC,132620.0,A,4011.169284,N,00824.231398,W,20.5,338.7,260508,,,A*41
$GPGSA,A,3,02,07,08,10,15,24,26,255,255,,,,2.9,1.5,2.4*31
$GPVTG,338.7,T,,M,20.5,N,38.0,K*63
$GPGSV,3,1,12,02,26,203,33,04,07,180,21,07,25,045,20,08,64,060,35*7F
$GPGSV,3,2,12,10,78,315,31,13,04,075,16,15,25,277,36,24,28,300,29*73
$GPGSV,3,3,12,25,07,045,,26,36,281,33,27,33,046,,28,23,132,17*7B
$GPGGA,132621.0,4011.174354,N,00824.234023,W,1,09,1.7,100.0,M,,,,*18
$GPRMC,132621.0,A,4011.174354,N,00824.234023,W,17.7,338.8,260508,,,A*4F
$GPGSA,A,3,02,04,07,08,10,15,24,26,255,,,,3.2,1.7,2.7*0C
$GPVTG,338.8,T,,M,17.7,N,32.8,K*68
$GPGSV,3,1,12,02,26,203,25,04,07,180,23,07,25,045,20,08,64,060,31*7E
$GPGSV,3,2,12,10,78,315,31,13,04,075,16,15,25,277,36,24,28,300,25*7F
$GPGSV,3,3,12,25,07,045,,26,36,281,26,27,33,046,,28,23,132,17*7F
$GPGGA,132622.0,4011.178696,N,00824.236171,W,1,08,1.7,100.0,M,,,,*19
$GPRMC,132622.0,A,4011.178696,N,00824.236171,W,15.2,341.0,260508,,,A*4E
$GPGSA,A,3,02,04,08,10,15,24,26,255,,,,,3.0,1.7,2.4*0A
$GPVTG,341.0,T,,M,15.2,N,28.2,K*68
$GPGSV,3,1,12,02,26,203,26,04,07,180,22,07,25,045,25,08,64,060,29*70
$GPGSV,3,2,12,10,78,315,30,13,04,075,16,15,25,277,38,24,28,300,34*70
$GPGSV,3,3,12,25,07,045,,26,36,281,31,27,33,046,,28,23,132,17*79
$GPGGA,132623.0,4011.181732,N,00824.237569,W,1,08,1.7,101.0,M,,,,*1C
$GPRMC,132623.0,A,4011.181732,N,00824.237569,W,10.8,339.6,260508,,,A*4C
$GPGSA,A,3,02,04,07,08,10,15,24,26,,,,,2.9,1.7,2.3*30
$GPVTG,339.6,T,,M,10.8,N,20.0,K*64
$GPGSV,3,1,12,02,26,203,30,04,07,180,20,07,25,045,26,08,64,060,31*7F
$GPGSV,3,2,12,10,78,315,26,13,04,075,16,15,25,277,39,24,28,300,35*77
$GPGSV,3,3,12,25,07,045,,26,36,281,33,27,33,046,,28,23,132,17*7B
$GPGGA,132624.0,4011.183039,N,00824.238172,W,1,08,1.6,101.5,M,,,,*10
$GPRMC,132624.0,A,4011.183039,N,00824.238172,W,4.5,341.8,260508,,,A*7D
$GPGSA,A,3,02,04,07,08,10,15,24,26,,,,,3.1,1.6,2.7*3C
$GPVTG,341.8,T,,M,4.5,N,8.3,K*64
$GPGSV,3,1,12,02,26,203,24,04,07,180,20,07,25,045,22,08,64,060,35*7A
$GPGSV,3,2,12,10,78,315,26,13,04,075,16,15,25,277,36,24,28,300,33*7E
$GPGSV,3,3,12,25,07,045,,26,36,281,34,27,33,046,,28,23,132,17*7C
$GPGGA,132625.0,4011.183776,N,00824.238504,W,1,08,1.8,102.0,M,,,,*10
$GPRMC,132625.0,A,4011.183776,N,00824.238504,W,2.3,334.8,260508,,,A*77
$GPGSA,A,3,02,07,08,10,15,24,26,255,,,,,3.3,1.8,2.7*06
$GPVTG,334.8,T,,M,2.3,N,4.3,K*6A
$GPGSV,3,1,12,02,26,203,23,04,07,180,,07,25,045,26,08,64,060,29*76
$GPGSV,3,2,12,10,78,315,31,13,04,075,16,15,25,277,32,24,28,300,27*79
$GPGSV,3,3,12,25,07,045,,26,36,281,32,27,33,046,,28,23,132,17*7A
$GPGGA,132626.0,4011.184402,N,00824.239037,W,1,08,1.8,102.0,M,,,,*10
$GPRMC,132626.0,A,4011.184402,N,00824.239037,W,3.2,319.9,260508,,,A*79
$GPGSA,A,3,02,07,08,10,15,24,26,255,,,,,3.1,1.8,2.5*06
$GPVTG,319.9,T,,M,3.2,N,5.9,K*6F
$GPGSV,3,1,12,02,26,203,26,04,07,180,,07,25,045,25,08,64,060,29*70
$GPGSV,3,2,12,10,78,315,29,13,04,075,16,15,25,277,31,24,28,300,25*71
$GPGSV,3,3,12,25,07,045,,26,36,281,31,27,33,046,,28,23,132,17*79
$GPGGA,132627.0,4011.185302,N,00824.240345,W,1,08,1.7,102.5,M,,,,*15
$GPRMC,132627.0,A,4011.185302,N,00824.240345,W,5.9,307.8,260508,,,A*75
$GPGSA,A,3,02,07,08,10,15,24,26,255,,,,,2.9,1.7,2.3*06
$GPVTG,307.8,T,,M,5.9,N,10.9,K*58
$GPGSV,3,1,12,02,26,203,24,04,07,180,,07,25,045,26,08,64,060,26*7E
$GPGSV,3,2,12,10,78,315,24,13,04,075,16,15,25,277,26,24,28,300,25*7A
$GPGSV,3,3,12,25,07,045,,26,36,281,28,27,33,046,,28,23,132,22*77
$GPGGA,132628.0,4011.186263,N,00824.242724,W,1,08,1.4,102.5,M,,,,*1D
$GPRMC,132628.0,A,4011.186263,N,00824.242724,W,8.4,292.1,260508,,,A*7A
$GPGSA,A,3,02,07,08,10,15,24,26,255,,,,,2.6,1.4,2.2*0B
$GPVTG,292.1,T,,M,8.4,N,15.6,K*56
$GPGSV,3,1,12,02,26,203,26,04,07,180,,07,25,045,22,08,64,060,29*77
$GPGSV,3,2,12,10,78,315,20,13,04,075,16,15,25,277,24,24,28,300,31*79
$GPGSV,3,3,12,25,07,045,,26,36,281,22,27,33,046,,28,23,132,24*7B
$GPGGA,132629.0,4011.186864,N,00824.246511,W,1,08,1.2,102.5,M,,,,*17
$GPRMC,132629.0,A,4011.186864,N,00824.246511,W,11.5,281.1,260508,,,A*4D
$GPGSA,A,3,02,07,08,10,15,24,26,255,,,,,2.6,1.2,2.2*0D
$GPVTG,281.1,T,,M,11.5,N,21.4,K*68
$GPGSV,3,1,12,02,26,203,33,04,07,180,,07,25,045,27,08,64,060,27*78
$GPGSV,3,2,12,10,78,315,24,13,04,075,16,15,25,277,29,24,28,300,28*78
$GPGSV,3,3,12,25,07,045,,26,36,281,29,27,33,046,,28,23,132,29*7D
$GPGGA,132630.0,4011.186258,N,00824.251479,W,1,09,1.0,102.5,M,,,,*10
$GPRMC,132630.0,A,4011.186258,N,00824.251479,W,14.7,263.9,260508,,,A*4A
$GPGSA,A,3,02,07,08,10,15,24,26,28,255,,,,2.1,1.0,1.9*0A
$GPVTG,263.9,T,,M,14.7,N,27.2,K*6B
$GPGSV,3,1,12,02,26,203,30,04,07,180,,07,25,045,28,08,64,060,30*72
$GPGSV,3,2,12,10,78,315,27,13,04,075,16,15,25,277,35,24,28,300,31*7E
$GPGSV,3,3,12,25,07,045,,26,36,281,34,27,33,046,,28,23,132,30*79
$GPGGA,132631.0,4011.184721,N,00824.258560,W,1,08,1.0,102.5,M,,,,*19
$GPRMC,132631.0,A,4011.184721,N,00824.258560,W,19.4,254.1,260508,,,A*40
$GPGSA,A,3,02,07,08,10,15,24,26,28,,,,,2.2,1.0,1.9*3B
$GPVTG,254.1,T,,M,19.4,N,36.0,K*6B
$GPGSV,3,1,12,02,26,203,21,04,07,180,,07,25,045,28,08,64,060,30*72
$GPGSV,3,2,12,10,78,315,28,13,04,075,16,15,25,277,33,24,28,300,34*72
$GPGSV,3,3,12,25,07,045,,26,36,281,34,27,33,046,,28,23,132,32*7B
$GPGGA,132632.0,4011.183079,N,00824.266019,W,1,08,1.2,102.5,M,,,,*13
$GPRMC,132632.0,A,4011.183079,N,00824.266019,W,21.2,253.6,260508,,,A*45
$GPGSA,A,3,02,07,08,10,15,24,26,28,,,,,2.1,1.2,1.8*3B
$GPVTG,253.6,T,,M,21.2,N,39.2,K*6B
$GPGSV,3,1,12,02,26,203,21,04,07,180,,07,25,045,27,08,64,060,28*74
$GPGSV,3,2,12,10,78,315,29,13,04,075,16,15,25,277,34,24,28,300,33*73
$GPGSV,3,3,12,25,07,045,,26,36,281,34,27,33,046,,28,23,132,31*78
$GPGGA,132633.0,4011.181377,N,00824.274458,W,1,08,1.2,102.5,M,,,,*1F
$GPRMC,132633.0,A,4011.181377,N,00824.274458,W,24.4,253.7,260508,,,A*4B
$GPGSA,A,3,07,08,10,15,24,26,28,255,,,,,2.2,1.2,1.8*08
$GPVTG,253.7,T,,M,24.4,N,45.1,K*61
$GPGSV,3,1,12,02,26,203,21,04,07,180,,07,25,045,27,08,64,059,29*7F
$GPGSV,3,2,12,10,78,315,28,13,04,075,16,15,25,277,34,24,28,300,33*72
$GPGSV,3,3,12,25,07,045,,26,36,281,34,27,33,046,,28,23,132,27*7F
$GPGGA,132634.0,4011.179280,N,00824.283741,W,1,08,1.2,102.5,M,,,,*15
$GPRMC,132634.0,A,4011.179280,N,00824.283741,W,27.4,253.4,260508,,,A*41
$GPGSA,A,3,07,08,10,15,24,26,28,255,,,,,2.2,1.2,1.9*09
$GPVTG,253.4,T,,M,27.4,N,50.7,K*63
$GPGSV,3,1,12,02,26,203,22,04,07,180,,07,25,045,24,08,64,059,29*7F
$GPGSV,3,2,12,10,78,315,27,13,04,075,16,15,25,277,33,24,28,300,31*78
$GPGSV,3,3,12,25,07,045,,26,36,281,34,27,33,046,,28,23,132,27*7F
$GPGGA,132635.0,4011.176987,N,00824.293513,W,1,08,1.4,102.0,M,,,,*10
$GPRMC,132635.0,A,4011.176987,N,00824.293513,W,28.4,252.9,260508,,,A*44
$GPGSA,A,3,02,07,08,10,15,24,26,255,,,,,2.4,1.4,2.0*0B
$GPVTG,252.9,T,,M,28.4,N,52.6,K*63
$GPGSV,3,1,12,02,26,203,32,04,07,180,,07,25,045,26,08,64,059,29*7C
$GPGSV,3,2,12,10,78,315,27,13,04,075,,15,25,277,32,24,28,300,29*77
$GPGSV,3,3,12,25,07,045,,26,36,281,34,27,33,046,,28,23,132,27*7F
$GPGGA,132636.0,4011.174552,N,00824.303662,W,1,08,1.1,102.0,M,,,,*1D
$GPRMC,132636.0,A,4011.174552,N,00824.303662,W,29.0,252.9,260508,,,A*49
$GPGSA,A,3,02,07,08,10,15,24,26,255,,,,,2.5,1.1,2.3*0C
$GPVTG,252.9,T,,M,29.0,N,53.7,K*66
$GPGSV,3,1,12,02,26,203,32,04,07,180,,07,25,045,24,08,64,059,28*7F
$GPGSV,3,2,12,10,78,315,26,13,04,075,,15,25,277,32,24,28,300,28*77
$GPGSV,3,3,12,25,07,045,,26,36,281,34,27,33,046,,28,23,132,22*7A
$GPGGA,132637.0,4011.172043,N,00824.314032,W,1,08,1.2,102.0,M,,,,*19
$GPRMC,132637.0,A,4011.172043,N,00824.314032,W,29.7,253.0,260508,,,A*41
$GPGSA,A,3,02,07,08,10,15,24,26,28,,,,,2.7,1.2,2.4*32
$GPVTG,253.0,T,,M,29.7,N,55.1,K*69
$GPGSV,3,1,12,02,26,203,31,04,07,180,,07,25,045,24,08,64,059,29*7D
$GPGSV,3,2,12,10,78,315,26,13,04,075,,15,25,277,33,24,28,300,28*76
$GPGSV,3,3,12,25,07,045,,26,36,281,35,27,33,046,,28,23,132,31*79
$GPGGA,132638.0,4011.169551,N,00824.324668,W,1,08,1.2,101.5,M,,,,*16
$GPRMC,132638.0,A,4011.169551,N,00824.324668,W,30.5,251.9,260508,,,A*49
$GPGSA,A,3,02,08,10,15,24,26,28,255,,,,,2.7,1.2,2.4*07
$GPVTG,251.9,T,,M,30.5,N,56.5,K*6F
$GPGSV,3,1,12,02,26,203,33,04,07,180,,07,25,045,24,08,64,059,26*70
$GPGSV,3,2,12,10,78,315,24,13,04,075,,15,25,277,33,24,28,300,27*7B
$GPGSV,3,3,12,25,07,045,,26,36,281,36,27,33,046,,28,23,132,26*7C
$GPGGA,132639.0,4011.166687,N,00824.335436,W,1,08,1.2,101.0,M,,,,*1C
$GPRMC,132639.0,A,4011.166687,N,00824.335436,W,31.0,250.2,260508,,,A*48
$GPGSA,A,3,02,08,10,15,24,26,28,255,,,,,2.9,1.2,2.7*0A
$GPVTG,250.2,T,,M,31.0,N,57.4,K*61
$GPGSV,3,1,12,02,26,203,34,04,07,180,,07,25,045,24,08,64,059,28*79
$GPGSV,3,2,12,10,78,315,27,13,04,075,,15,25,277,31,24,28,300,28*75
$GPGSV,3,3,12,25,07,045,,26,36,281,35,27,33,046,,28,23,132,27*7E
$GPGGA,132640.0,4011.163833,N,00824.346168,W,1,08,1.1,100.5,M,,,,*1B
$GPRMC,132640.0,A,4011.163833,N,00824.346168,W,30.6,251.9,260508,,,A*45
$GPGSA,A,3,02,07,08,10,15,24,26,28,,,,,2.8,1.1,2.5*3F
$GPVTG,251.9,T,,M,30.6,N,56.6,K*6F
$GPGSV,3,1,12,02,26,203,31,04,07,180,,07,25,045,29,08,64,059,30*78
$GPGSV,3,2,12,10,78,315,29,13,04,075,,15,25,277,31,24,28,300,30*72
$GPGSV,3,3,12,25,07,045,,26,36,281,33,27,33,046,,28,23,132,31*7F
$GPGGA,132641.0,4011.161389,N,00824.357106,W,1,08,1.1,100.5,M,,,,*1A
$GPRMC,132641.0,A,4011.161389,N,00824.357106,W,30.6,254.4,260508,,,A*4C
$GPGSA,A,3,02,07,08,10,15,24,26,28,,,,,2.6,1.1,2.3*37
$GPVTG,254.4,T,,M,30.6,N,56.6,K*67
$GPGSV,3,1,12,02,26,203,30,04,07,180,,07,25,045,30,08,64,059,30*71
$GPGSV,3,2,12,10,78,315,27,13,04,075,,15,25,277,33,24,28,300,31*7F
$GPGSV,3,3,12,25,07,045,,26,36,281,32,27,33,046,,28,23,132,31*7E
$GPGGA,132642.0,4011.158980,N,00824.368010,W,1,08,1.0,100.0,M,,,,*1E
$GPRMC,132642.0,A,4011.158980,N,00824.368010,W,30.6,254.8,260508,,,A*40
$GPGSA,A,3,02,07,08,10,15,24,26,28,,,,,2.4,1.0,2.2*35
$GPVTG,254.8,T,,M,30.6,N,56.6,K*6B
$GPGSV,3,1,12,02,26,203,31,04,07,180,,07,25,045,29,08,64,059,30*78
$GPGSV,3,2,12,10,78,315,26,13,04,075,,15,25,277,33,24,28,300,31*7E
$GPGSV,3,3,12,25,07,045,,26,36,281,33,27,33,046,,28,23,132,30*7E
$GPGGA,132643.0,4011.156480,N,00824.378988,W,1,08,1.0,100.0,M,,,,*15
$GPRMC,132643.0,A,4011.156480,N,00824.378988,W,30.3,254.0,260508,,,A*46
$GPGSA,A,3,02,07,08,10,15,24,26,28,,,,,2.4,1.0,2.2*35
$GPVTG,254.0,T,,M,30.3,N,56.1,K*61
$GPGSV,3,1,12,02,26,203,30,04,07,180,,07,25,045,29,08,64,059,30*79
$GPGSV,3,2,12,10,78,315,26,13,04,075,,15,25,277,33,24,28,300,30*7F
$GPGSV,3,3,12,25,07,045,,26,36,281,32,27,33,046,,28,23,132,31*7E
$GPGGA,132644.0,4011.154217,N,00824.389474,W,1,08,1.0,99.5,M,,,,*2C
$GPRMC,132644.0,A,4011.154217,N,00824.389474,W,28.3,254.4,260508,,,A*46
$GPGSA,A,3,02,07,08,10,15,24,26,28,,,,,2.4,1.0,2.2*35
$GPVTG,254.4,T,,M,28.3,N,52.4,K*6D
$GPGSV,3,1,12,02,26,203,28,04,07,180,,07,25,045,25,08,64,059,30*7C
$GPGSV,3,2,12,10,78,315,26,13,04,075,,15,25,277,34,24,28,300,29*70
$GPGSV,3,3,12,25,07,045,,26,36,281,28,27,33,046,,28,23,132,32*76
$GPGGA,132645.0,4011.152467,N,00824.398999,W,1,08,1.1,99.0,M,,,,*20
$GPRMC,132645.0,A,4011.152467,N,00824.398999,W,25.0,258.0,260508,,,A*48
$GPGSA,A,3,02,07,08,10,15,24,26,28,,,,,2.3,1.1,2.1*30
$GPVTG,258.0,T,,M,25.0,N,46.3,K*69
$GPGSV,3,1,12,02,26,203,35,04,07,180,,07,25,045,24,08,64,059,28*78
$GPGSV,3,2,12,10,78,315,26,13,04,075,,15,25,277,30,24,28,300,27*7A
$GPGSV,3,3,12,25,07,045,,26,36,281,30,27,33,046,,28,23,132,23*7F
$GPGGA,132646.0,4011.151154,N,00824.407599,W,1,08,1.1,99.0,M,,,,*28
$GPRMC,132646.0,A,4011.151154,N,00824.407599,W,22.9,261.5,260508,,,A*41
$GPGSA,A,3,02,07,08,10,15,24,26,28,,,,,2.4,1.1,2.1*37
$GPVTG,261.5,T,,M,22.9,N,42.5,K*6A
$GPGSV,3,1,12,02,26,203,36,04,07,180,,07,25,045,24,08,64,059,26*75
$GPGSV,3,2,12,10,78,315,28,13,04,075,,15,25,277,26,24,28,300,21*75
$GPGSV,3,3,12,25,07,045,,26,36,281,29,27,33,046,,28,23,132,21*75
$GPGGA,132647.0,4011.150473,N,00824.415444,W,1,08,1.0,98.5,M,,,,*2F
$GPRMC,132647.0,A,4011.150473,N,00824.415444,W,20.7,265.3,260508,,,A*4D
$GPGSA,A,3,02,08,10,15,24,26,28,255,,,,,2.2,1.0,1.9*0E
$GPVTG,265.3,T,,M,20.7,N,38.4,K*68
$GPGSV,3,1,12,02,26,203,35,04,07,180,,07,25,045,24,08,64,059,26*76
$GPGSV,3,2,12,10,78,315,26,13,04,075,,15,25,277,27,24,28,300,28*73
$GPGSV,3,3,12,25,07,045,,26,36,281,23,27,33,046,,28,23,132,22*7C
$GPGGA,132648.0,4011.150166,N,00824.422480,W,1,08,1.0,98.5,M,,,,*2D
$GPRMC,132648.0,A,4011.150166,N,00824.422480,W,18.6,268.1,260508,,,A*4A
$GPGSA,A,3,02,08,10,15,24,26,28,255,,,,,2.2,1.0,1.9*0E
$GPVTG,268.1,T,,M,18.6,N,34.5,K*60
$GPGSV,3,1,12,02,26,203,30,04,07,180,,07,25,045,24,08,64,059,26*73
$GPGSV,3,2,12,10,78,315,25,13,04,075,,15,25,277,26,24,28,300,32*7A
$GPGSV,3,3,12,25,07,045,,26,36,281,25,27,33,046,,28,23,132,22*7A
$GPGGA,132649.0,4011.150081,N,00824.428887,W,1,08,1.5,98.0,M,,,,*25
$GPRMC,132649.0,A,4011.150081,N,00824.428887,W,17.0,270.1,260508,,,A*42
$GPGSA,A,3,02,08,10,15,24,26,255,255,,,,,3.2,1.5,2.8*30
$GPVTG,270.1,T,,M,17.0,N,31.5,K*65
$GPGSV,3,1,12,02,26,203,28,04,07,180,,07,25,045,24,08,64,059,29*75
$GPGSV,3,2,12,10,78,315,22,13,04,075,,15,25,277,23,24,28,300,33*79
$GPGSV,3,3,12,25,07,045,,26,36,281,26,27,33,046,,28,23,132,24*7F
$GPGGA,132650.0,4011.150106,N,00824.434822,W,1,08,1.4,98.0,M,,,,*20
$GPRMC,132650.0,A,4011.150106,N,00824.434822,W,16.2,272.2,260508,,,A*44
$GPGSA,A,3,02,08,10,15,24,26,28,255,,,,,3.3,1.4,3.0*01
$GPVTG,272.2,T,,M,16.2,N,30.0,K*63
$GPGSV,3,1,12,02,26,203,28,04,07,180,,07,25,045,24,08,64,059,33*7E
$GPGSV,3,2,12,10,78,315,22,13,04,075,,15,25,277,27,24,28,300,33*7D
$GPGSV,3,3,12,25,07,045,,26,36,281,24,27,33,046,,28,23,132,24*7D
$GPGGA,132651.0,4011.150405,N,00824.440771,W,1,08,0.9,98.5,M,,,,*24
$GPRMC,132651.0,A,4011.150405,N,00824.440771,W,16.8,274.7,260508,,,A*40
$GPGSA,A,3,02,07,08,15,24,26,28,255,,,,,2.1,0.9,1.9*03
$GPVTG,274.7,T,,M,16.8,N,31.1,K*6A
$GPGSV,3,1,12,02,26,203,20,04,07,180,,07,25,045,28,08,64,059,32*7B
$GPGSV,3,2,12,10,78,315,21,13,04,075,,15,25,277,27,24,28,300,34*79
$GPGSV,3,3,12,25,07,045,,26,36,281,26,27,33,046,,28,23,132,27*7C
$GPGGA,132652.0,4011.150895,N,00824.447359,W,1,08,1.1,98.5,M,,,,*22
$GPRMC,132652.0,A,4011.150895,N,00824.447359,W,19.2,277.7,260508,,,A*49
$GPGSA,A,3,02,07,08,10,15,24,26,28,,,,,2.0,1.1,1.6*37
$GPVTG,277.7,T,,M,19.2,N,35.5,K*6C
$GPGSV,3,1,12,02,26,203,26,04,07,180,,07,25,045,24,08,64,059,30*73
$GPGSV,3,2,12,10,78,315,23,13,04,075,,15,25,277,26,24,28,300,35*7B
$GPGSV,3,3,12,25,07,045,,26,36,281,31,27,33,046,,28,23,132,27*7A
$GPGGA,132653.0,4011.151881,N,00824.454828,W,1,08,1.1,98.5,M,,,,*28
$GPRMC,132653.0,A,4011.151881,N,00824.454828,W,22.3,281.2,260508,,,A*46
$GPGSA,A,3,02,07,08,10,15,24,26,28,,,,,2.1,1.1,1.7*37
$GPVTG,281.2,T,,M,22.3,N,41.3,K*6C
$GPGSV,3,1,12,02,26,203,31,04,07,180,,07,25,045,24,08,64,059,31*74
$GPGSV,3,2,12,10,79,315,21,13,04,075,,15,25,277,29,24,28,300,29*7A
$GPGSV,3,3,12,25,07,045,,26,36,281,26,27,33,046,,28,23,132,26*7D
$GPGGA,132654.0,4011.153568,N,00824.463317,W,1,08,1.1,98.5,M,,,,*24
$GPRMC,132654.0,A,4011.153568,N,00824.463317,W,25.5,284.1,260508,,,A*4D
$GPGSA,A,3,02,07,08,10,15,24,26,28,,,,,2.2,1.1,1.8*3B
$GPVTG,284.1,T,,M,25.5,N,47.2,K*6C
$GPGSV,3,1,12,02,26,203,26,04,07,180,,07,25,045,25,08,64,059,31*73
$GPGSV,3,2,12,10,79,315,27,13,04,075,,15,25,277,27,24,28,300,24*7F
$GPGSV,3,3,12,25,07,045,,26,36,281,26,27,33,046,,28,23,132,21*7A
$GPGGA,132655.0,4011.155960,N,00824.473003,W,1,08,1.1,98.0,M,,,,*25
$GPRMC,132655.0,A,4011.155960,N,00824.473003,W,28.6,289.1,260508,,,A*4A
$GPGSA,A,3,02,07,08,10,15,24,28,255,,,,,2.1,1.1,1.7*01
$GPVTG,289.1,T,,M,28.6,N,52.9,K*60
$GPGSV,3,1,12,02,26,203,29,04,07,180,,07,25,045,31,08,64,059,23*7A
$GPGSV,3,2,12,10,79,315,28,13,04,075,,15,25,277,24,24,28,300,26*71
$GPGSV,3,3,12,25,07,045,,26,36,281,21,27,33,046,,28,23,132,20*7C
$GPGGA,132656.0,4011.159035,N,00824.483288,W,1,08,0.9,98.5,M,,,,*21
$GPRMC,132656.0,A,4011.159035,N,00824.483288,W,30.3,294.1,260508,,,A*42
$GPGSA,A,3,02,07,08,10,15,24,26,28,,,,,1.9,0.9,1.6*34
$GPVTG,294.1,T,,M,30.3,N,56.1,K*6C
$GPGSV,3,1,12,02,26,203,31,04,07,180,,07,25,045,23,08,64,059,26*75
$GPGSV,3,2,12,10,79,315,31,13,04,075,,15,25,277,26,24,28,300,30*7C
$GPGSV,3,3,12,25,07,045,,26,36,281,30,27,33,046,,28,23,132,24*78
$GPGGA,132657.0,4011.162895,N,00824.493537,W,1,08,0.9,99.0,M,,,,*2C
$GPRMC,132657.0,A,4011.162895,N,00824.493537,W,32.0,298.2,260508,,,A*45
$GPGSA,A,3,02,07,08,10,15,24,26,28,,,,,1.9,0.9,1.6*34
$GPVTG,298.2,T,,M,32.0,N,59.3,K*6F
$GPGSV,3,1,12,02,26,203,26,04,07,180,,07,25,045,23,08,64,059,30*74
$GPGSV,3,2,12,10,79,315,31,13,04,075,,15,25,277,25,24,28,300,26*78
$GPGSV,3,3,12,25,07,045,,26,36,281,32,27,33,046,,28,23,132,24*7A
$GPGGA,132658.0,4011.167615,N,00824.503656,W,1,08,1.0,99.5,M,,,,*21
$GPRMC,132658.0,A,4011.167615,N,00824.503656,W,32.4,303.4,260508,,,A*44
$GPGSA,A,3,02,08,10,15,24,26,255,255,,,,,1.9,1.0,1.6*31
$GPVTG,303.4,T,,M,32.4,N,60.0,K*67
$GPGSV,3,1,12,02,26,203,23,04,07,180,,07,25,045,25,08,64,059,24*72
$GPGSV,3,2,12,10,79,315,29,13,04,075,,15,25,277,26,24,28,300,27*73
$GPGSV,3,3,12,25,07,045,,26,36,281,32,27,33,046,,28,23,132,24*7A
$GPGGA,132659.0,4011.173443,N,00824.513241,W,1,08,1.1,100.0,M,,,,*12
$GPRMC,132659.0,A,4011.173443,N,00824.513241,W,33.6,309.5,260508,,,A*4A
$GPGSA,A,3,02,07,08,10,15,24,26,255,,,,,1.9,1.1,1.5*06
$GPVTG,309.5,T,,M,33.6,N,62.2,K*6F
$GPGSV,3,1,12,02,26,203,25,04,07,180,,07,25,045,25,08,64,059,23*73
$GPGSV,3,2,12,10,79,315,27,13,04,075,,15,25,277,29,24,28,300,27*72
$GPGSV,3,3,12,25,07,045,,26,36,281,26,27,33,046,,28,23,132,22*79
$GPGGA,132700.0,4011.179939,N,00824.522404,W,1,08,1.1,100.5,M,,,,*15
$GPRMC,132700.0,A,4011.179939,N,00824.522404,W,34.4,314.6,260508,,,A*42
$GPGSA,A,3,02,08,10,15,24,26,28,255,,,,,1.9,1.1,1.5*0B
$GPVTG,314.6,T,,M,34.4,N,63.7,K*61
$GPGSV,3,1,12,02,26,203,29,04,07,180,,07,25,045,25,08,64,059,24*78
$GPGSV,3,2,12,10,79,315,26,13,04,075,,15,25,277,28,24,28,300,25*70
$GPGSV,3,3,12,25,07,045,,26,36,281,25,27,33,046,,28,23,132,25*7D
$GPGGA,132701.0,4011.187482,N,00824.531215,W,1,08,1.1,101.0,M,,,,*18
$GPRMC,132701.0,A,4011.187482,N,00824.531215,W,36.2,318.8,260508,,,A*4D
$GPGSA,A,3,02,08,10,15,24,26,28,255,,,,,1.9,1.1,1.6*08
$GPVTG,318.8,T,,M,36.2,N,67.0,K*64
$GPGSV,3,1,12,02,26,203,26,04,07,180,,07,25,045,25,08,64,059,21*72
$GPGSV,3,2,12,10,79,315,27,13,04,075,,15,25,277,38,24,28,300,26*73
$GPGSV,3,3,12,25,07,045,,26,36,281,33,27,33,046,,28,23,132,24*7B
$GPGGA,132702.0,4011.195366,N,00824.539961,W,1,08,1.7,102.0,M,,,,*10
$GPRMC,132702.0,A,4011.195366,N,00824.539961,W,36.8,321.0,260508,,,A*48
$GPGSA,A,3,02,08,10,15,24,26,28,255,,,,,2.8,1.7,2.2*0B
$GPVTG,321.0,T,,M,36.8,N,68.2,K*61
$GPGSV,3,1,12,02,26,203,25,04,07,180,,07,25,045,25,08,64,059,22*72
$GPGSV,3,2,12,10,79,315,29,13,04,075,,15,25,277,38,24,28,300,25*7E
$GPGSV,3,3,12,25,07,045,,26,36,281,32,27,33,046,,28,23,132,24*7A
$GPGGA,132703.0,4011.203488,N,00824.548516,W,1,08,1.8,102.5,M,,,,*1A
$GPRMC,132703.0,A,4011.203488,N,00824.548516,W,37.6,321.3,260508,,,A*44
$GPGSA,A,3,02,08,10,15,24,26,28,255,,,,,2.9,1.8,2.3*04
$GPVTG,321.3,T,,M,37.6,N,69.6,K*68
$GPGSV,3,1,12,02,26,203,28,04,07,180,,07,25,045,20,08,64,059,22*7A
$GPGSV,3,2,12,10,79,315,28,13,04,075,,15,25,277,38,24,28,300,22*78
$GPGSV,3,3,12,25,07,045,,26,36,281,34,27,33,046,,28,23,132,26*7E
$GPGGA,132704.0,4011.211776,N,00824.557226,W,1,08,1.3,104.0,M,,,,*1E
$GPRMC,132704.0,A,4011.211776,N,00824.557226,W,38.2,321.1,260508,,,A*41
$GPGSA,A,3,02,07,10,15,24,26,28,255,,,,,2.3,1.3,1.8*02
$GPVTG,321.1,T,,M,38.2,N,70.7,K*68
$GPGSV,3,1,12,02,26,203,28,04,07,180,,07,25,045,20,08,64,059,23*7B
$GPGSV,3,2,12,10,79,315,27,13,04,075,,15,25,277,38,24,28,300,22*77
$GPGSV,3,3,12,25,07,045,,26,36,281,34,27,33,046,,28,23,132,25*7D
$GPGGA,132705.0,4011.220116,N,00824.566042,W,1,08,1.4,105.0,M,,,,*19
$GPRMC,132705.0,A,4011.220116,N,00824.566042,W,38.5,320.8,260508,,,A*4F
$GPGSA,A,3,02,08,10,15,24,26,28,255,,,,,2.5,1.4,2.0*07
$GPVTG,320.8,T,,M,38.5,N,71.4,K*65
$GPGSV,3,1,12,02,26,203,29,04,07,180,,07,25,045,20,08,64,059,23*7A
$GPGSV,3,2,12,10,79,315,29,13,04,075,,15,25,277,38,24,28,300,21*7A
$GPGSV,3,3,12,25,07,045,,26,36,281,35,27,33,046,,28,23,132,25*7C
$GPGGA,132706.0,4011.228510,N,00824.574934,W,1,08,1.5,106.0,M,,,,*19
$GPRMC,132706.0,A,4011.228510,N,00824.574934,W,38.7,321.3,260508,,,A*45
$GPGSA,A,3,02,08,10,15,24,26,28,255,,,,,2.6,1.5,2.1*04
$GPVTG,321.3,T,,M,38.7,N,71.7,K*6E
$GPGSV,3,1,12,02,26,203,27,04,07,180,,07,25,045,20,08,64,059,23*74
$GPGSV,3,2,12,10,79,315,26,13,04,075,,15,25,277,39,24,28,300,27*72
$GPGSV,3,3,12,25,07,045,,26,36,281,33,27,33,046,,28,23,132,25*7A
$GPGGA,132707.0,4011.236972,N,00824.583795,W,1,08,2.1,107.0,M,,,,*14
$GPRMC,132707.0,A,4011.236972,N,00824.583795,W,38.7,321.4,260508,,,A*49