$GPGGA,140137.0,4011.506375,N,00824.150771,W,1,07,2.1,100.5,M,,,,*10
$GPRMC,140137.0,A,4011.506375,N,00824.150771,W,24.2,162.7,260508,,,A*4E
$GPGSA,A,3,08,10,15,24,26,28,255,,,,,,2.8,2.1,1.8*05
$GPVTG,162.7,T,,M,24.2,N,44.9,K*6F
$GPGSV,3,1,10,02,12,196,18,07,11,046,13,08,49,046,26,10,81,174,30*71
$GPGSV,3,2,10,15,36,289,32,21,07,320,20,24,30,284,26,26,48,298,27*7C
$GPGSV,3,3,10,27,19,047,,28,35,119,33*73
$GPGGA,140138.0,4011.499400,N,00824.147562,W,1,07,2.5,101.0,M,,,,*1B
$GPRMC,140138.0,A,4011.499400,N,00824.147562,W,27.4,158.7,260508,,,A*49
$GPGSA,A,3,08,10,15,24,26,28,255,,,,,,3.3,2.5,2.1*01
$GPVTG,158.7,T,,M,27.4,N,50.8,K*67
$GPGSV,3,1,10,02,12,196,18,07,11,046,13,08,49,046,20,10,81,174,28*7E
$GPGSV,3,2,10,15,36,289,34,21,07,320,16,24,30,284,26,26,48,298,30*79
$GPGSV,3,3,10,27,19,047,,28,35,119,31*71
$GPGGA,140139.0,4011.492329,N,00824.143257,W,1,08,2.5,101.0,M,,,,*17
$GPRMC,140139.0,A,4011.492329,N,00824.143257,W,29.2,154.0,260508,,,A*49
$GPGSA,A,3,08,10,15,21,24,26,28,255,,,,,3.2,2.5,2.0*02
$GPVTG,154.0,T,,M,29.2,N,54.1,K*69
$GPGSV,3,1,10,02,12,196,18,07,11,046,19,08,49,046,22,10,80,174,30*7E
$GPGSV,3,2,10,15,36,289,26,21,07,320,16,24,30,284,24,26,48,298,34*7C
$GPGSV,3,3,10,27,19,047,,28,35,119,31*71
$GPGGA,140140.0,4011.485054,N,00824.138545,W,1,08,2.5,101.5,M,,,,*1B
$GPRMC,140140.0,A,4011.485054,N,00824.138545,W,29.3,153.6,260508,,,A*40
$GPGSA,A,3,08,10,15,24,26,28,255,255,,,,,3.2,2.5,2.0*33
$GPVTG,153.6,T,,M,29.3,N,54.3,K*6B
$GPGSV,3,1,10,02,12,196,18,07,11,046,19,08,49,046,27,10,80,174,31*7A
$GPGSV,3,2,10,15,36,289,31,21,07,320,16,24,30,284,27,26,48,298,35*78
$GPGSV,3,3,10,27,19,047,,28,35,119,31*71
$GPGGA,140141.0,4011.477963,N,00824.133551,W,1,07,2.5,101.5,M,,,,*1B
$GPRMC,140141.0,A,4011.477963,N,00824.133551,W,28.1,152.1,260508,,,A*4A
$GPGSA,A,3,08,10,15,21,24,26,28,,,,,,3.2,2.5,2.0*30
$GPVTG,152.1,T,,M,28.1,N,52.0,K*6B
$GPGSV,3,1,10,02,12,196,18,07,11,046,19,08,49,046,27,10,80,174,31*7A
$GPGSV,3,2,10,15,36,289,33,21,07,320,16,24,30,284,33,26,48,298,35*7F
$GPGSV,3,3,10,27,19,047,,28,35,119,31*71
$GPGGA,140142.0,4011.471174,N,00824.128522,W,1,07,2.4,103.0,M,,,,*18
$GPRMC,140142.0,A,4011.471174,N,00824.128522,W,27.1,151.9,260508,,,A*4B
$GPGSA,A,3,08,10,15,24,26,28,255,,,,,,3.2,2.4,2.1*01
$GPVTG,151.9,T,,M,27.1,N,50.2,K*6F
$GPGSV,3,1,10,02,12,196,18,07,11,046,19,08,49,046,27,10,80,174,31*7A
$GPGSV,3,2,10,15,36,289,33,21,07,320,16,24,30,284,33,26,48,298,35*7F
$GPGSV,3,3,10,27,19,047,,28,35,119,31*71
$GPGGA,140143.0,4011.464646,N,00824.123810,W,1,07,2.4,104.0,M,,,,*1B
$GPRMC,140143.0,A,4011.464646,N,00824.123810,W,26.0,152.2,260508,,,A*47
$GPGSA,A,3,08,10,15,24,26,28,255,,,,,,3.2,2.4,2.1*01
$GPVTG,152.2,T,,M,26.0,N,48.1,K*6D
$GPGSV,3,1,10,02,12,196,18,07,11,046,19,08,49,046,31,10,80,174,31*7D
$GPGSV,3,2,10,15,36,289,34,21,07,320,16,24,30,284,34,26,48,298,35*7F
$GPGSV,3,3,10,27,19,047,,28,35,119,30*70
$GPGGA,140144.0,4011.458425,N,00824.119278,W,1,07,2.6,105.5,M,,,,*1F
$GPRMC,140144.0,A,4011.458425,N,00824.119278,W,24.8,151.8,260508,,,A*46
$GPGSA,A,3,08,10,15,24,26,28,255,,,,,,3.7,2.6,2.5*02
$GPVTG,151.8,T,,M,24.8,N,45.9,K*6B
$GPGSV,3,1,10,02,12,196,18,07,11,046,19,08,49,046,30,10,80,174,28*74
$GPGSV,3,2,10,15,36,289,30,21,07,320,16,24,30,284,26,26,48,298,34*79
$GPGSV,3,3,10,27,19,047,,28,35,119,32*72
$GPGGA,140145.0,4011.452807,N,00824.115094,W,1,07,2.4,106.5,M,,,,*15
$GPRMC,140145.0,A,4011.452807,N,00824.115094,W,22.7,152.3,260508,,,A*4C
$GPGSA,A,3,08,10,15,24,26,28,255,,,,,,3.8,2.4,2.9*03
$GPVTG,152.3,T,,M,22.7,N,42.0,K*64
$GPGSV,3,1,10,02,12,196,15,07,11,046,19,08,49,046,26,10,80,174,28*7E
$GPGSV,3,2,10,15,36,289,33,21,07,320,16,24,30,284,32,26,48,298,34*7F
$GPGSV,3,3,10,27,19,047,,28,35,119,31*71
$GPGGA,140146.0,4011.448070,N,00824.111393,W,1,07,2.5,107.0,M,,,,*10
$GPRMC,140146.0,A,4011.448070,N,00824.111393,W,19.2,153.5,260508,,,A*46
$GPGSA,A,3,08,10,15,24,26,28,255,,,,,,4.0,2.5,3.2*07
$GPVTG,153.5,T,,M,19.2,N,35.6,K*68
$GPGSV,3,1,10,02,12,196,15,07,11,046,14,08,49,046,28,10,80,174,29*7C
$GPGSV,3,2,10,15,36,289,33,21,07,320,16,24,30,284,28,26,48,298,34*74
$GPGSV,3,3,10,27,19,047,,28,35,119,32*72
$GPGGA,140147.0,4011.444175,N,00824.108476,W,1,07,2.4,107.5,M,,,,*19
$GPRMC,140147.0,A,4011.444175,N,00824.108476,W,15.3,151.7,260508,,,A*46
$GPGSA,A,3,08,10,15,24,26,28,255,,,,,,4.0,2.4,3.2*06
$GPVTG,151.7,T,,M,15.3,N,28.3,K*6C
$GPGSV,3,1,10,02,12,196,15,07,11,046,14,08,49,046,29,10,80,174,28*7C
$GPGSV,3,2,10,15,36,289,24,21,07,320,16,24,30,284,22,26,48,298,26*7B
$GPGSV,3,3,10,27,19,047,,28,35,119,31*71
$GPGGA,140148.0,4011.441499,N,00824.106710,W,1,06,1.6,107.5,M,,,,*19
$GPRMC,140148.0,A,4011.441499,N,00824.106710,W,10.5,153.1,260508,,,A*41
$GPGSA,A,3,08,10,15,24,26,28,,,,,,,3.1,1.6,2.6*36
$GPVTG,153.1,T,,M,10.5,N,19.5,K*6F
$GPGSV,3,1,10,02,12,196,15,07,11,046,14,08,49,046,27,10,80,174,25*7F
$GPGSV,3,2,10,15,36,289,23,21,07,320,16,24,30,284,23,26,48,298,24*7F
$GPGSV,3,3,10,27,19,047,,28,35,119,29*78
$GPGGA,140149.0,4011.439234,N,00824.104975,W,1,06,1.6,107.5,M,,,,*19
$GPRMC,140149.0,A,4011.439234,N,00824.104975,W,9.2,152.0,260508,,,A*7E
$GPGSA,A,3,08,10,15,24,26,28,,,,,,,3.1,1.6,2.7*37
$GPVTG,152.0,T,,M,9.2,N,17.1,K*5A
$GPGSV,3,1,10,02,12,196,15,07,11,046,14,08,49,046,29,10,80,174,28*7C
$GPGSV,3,2,10,15,36,289,24,21,07,320,16,24,30,284,23,26,48,298,29*75
$GPGSV,3,3,10,27,19,047,,28,35,119,30*70
$GPGGA,140150.0,4011.436618,N,00824.103170,W,1,06,1.5,107.5,M,,,,*1D
$GPRMC,140150.0,A,4011.436618,N,00824.103170,W,11.0,150.3,260508,,,A*43
$GPGSA,A,3,08,10,15,24,26,28,,,,,,,3.1,1.5,2.7*34
$GPVTG,150.3,T,,M,11.0,N,20.3,K*66
$GPGSV,3,1,10,02,12,196,15,07,11,046,13,08,49,046,25,10,80,174,28*77
$GPGSV,3,2,10,15,36,289,33,21,07,320,16,24,30,284,31,26,48,298,34*7C
$GPGSV,3,3,10,27,19,047,,28,35,119,29*78
$GPGGA,140151.0,4011.433450,N,00824.100841,W,1,06,1.9,108.0,M,,,,*19
$GPRMC,140151.0,A,4011.433450,N,00824.100841,W,14.3,149.6,260508,,,A*4A
$GPGSA,A,3,08,10,15,24,26,28,,,,,,,3.2,1.9,2.5*39
$GPVTG,149.6,T,,M,14.3,N,26.5,K*6D
$GPGSV,3,1,10,02,12,196,15,07,11,046,13,08,49,046,25,10,80,174,27*78
$GPGSV,3,2,10,15,36,289,34,21,07,320,16,24,30,284,29,26,48,298,35*73
$GPGSV,3,3,10,27,19,047,,28,35,119,28*79
$GPGGA,140152.0,4011.429729,N,00824.097849,W,1,06,2.1,108.5,M,,,,*15
$GPRMC,140152.0,A,4011.429729,N,00824.097849,W,17.3,147.6,260508,,,A*45
$GPGSA,A,3,10,15,24,26,28,255,,,,,,,3.3,2.1,2.6*0A
$GPVTG,147.6,T,,M,17.3,N,32.1,K*61
$GPGSV,3,1,10,02,12,196,15,07,11,046,13,08,49,046,22,10,80,174,24*7C
$GPGSV,3,2,10,15,37,289,32,21,07,320,16,24,30,284,27,26,48,298,34*7B
$GPGSV,3,3,10,27,19,047,,28,35,119,28*79
$GPGGA,140153.0,4011.425386,N,00824.094681,W,1,06,2.8,108.5,M,,,,*19
$GPRMC,140153.0,A,4011.425386,N,00824.094681,W,18.3,149.9,260508,,,A*4E
$GPGSA,A,3,08,10,15,24,26,28,,,,,,,4.3,2.8,3.3*3A
$GPVTG,149.9,T,,M,18.3,N,33.9,K*66
$GPGSV,3,1,10,02,12,196,15,07,11,046,13,08,49,046,27,10,80,174,22*7F
$GPGSV,3,2,10,15,37,289,23,21,07,320,16,24,30,284,27,26,48,298,29*77
$GPGSV,3,3,10,27,19,047,,28,35,119,29*78
$GPGGA,140154.0,4011.420555,N,00824.091387,W,1,06,2.4,108.5,M,,,,*19
$GPRMC,140154.0,A,4011.420555,N,00824.091387,W,20.3,151.6,260508,,,A*4F
$GPGSA,A,3,08,10,15,26,28,255,,,,,,,4.2,2.4,3.4*04
$GPVTG,151.6,T,,M,20.3,N,37.6,K*60
$GPGSV,3,1,10,02,12,196,15,07,11,046,,08,49,046,22,10,80,174,22*78
$GPGSV,3,2,10,15,37,289,32,21,07,320,16,24,30,284,26,26,48,298,34*7A
$GPGSV,3,3,10,27,19,047,,28,35,119,31*71
$GPGGA,140155.0,4011.415056,N,00824.087947,W,1,06,2.9,108.5,M,,,,*14
$GPRMC,140155.0,A,4011.415056,N,00824.087947,W,22.6,154.5,260508,,,A*4E
$GPGSA,A,3,08,10,15,24,26,28,,,,,,,4.6,2.9,3.6*3B
$GPVTG,154.5,T,,M,22.6,N,41.8,K*6E
$GPGSV,3,1,10,02,12,196,22,07,11,046,,08,49,046,26,10,80,174,25*7F
$GPGSV,3,2,10,15,37,289,36,21,07,320,16,24,30,284,29,26,48,298,33*76
$GPGSV,3,3,10,27,19,047,,28,35,119,22*73
$GPGGA,140156.0,4011.408860,N,00824.084653,W,1,06,2.6,109.0,M,,,,*14
$GPRMC,140156.0,A,4011.408860,N,00824.084653,W,24.5,158.7,260508,,,A*4E
$GPGSA,A,3,08,10,15,24,26,28,,,,,,,4.3,2.6,3.4*33
$GPVTG,158.7,T,,M,24.5,N,45.4,K*6D
$GPGSV,3,1,10,02,12,196,28,07,11,046,15,08,49,046,27,10,80,174,25*70
$GPGSV,3,2,10,15,37,289,29,21,07,320,16,24,30,284,27,26,48,298,31*74
$GPGSV,3,3,10,27,19,047,,28,35,119,24*75
$GPGGA,140157.0,4011.402224,N,00824.081680,W,1,07,1.9,108.5,M,,,,*17
$GPRMC,140157.0,A,4011.402224,N,00824.081680,W,26.0,163.9,260508,,,A*45
$GPGSA,A,3,02,08,15,24,26,28,255,,,,,,3.7,1.9,3.2*0B
$GPVTG,163.9,T,,M,26.0,N,48.2,K*67
$GPGSV,3,1,10,02,12,196,22,07,11,046,15,08,49,046,26,10,80,174,21*7F
$GPGSV,3,2,10,15,37,289,30,21,07,320,16,24,30,284,31,26,48,298,27*7C
$GPGSV,3,3,10,27,19,047,,28,35,119,28*79
$GPGGA,140158.0,4011.394975,N,00824.079719,W,1,07,1.9,108.5,M,,,,*19
$GPRMC,140158.0,A,4011.394975,N,00824.079719,W,26.9,170.5,260508,,,A*4C
$GPGSA,A,3,02,08,10,15,24,26,28,,,,,,4.1,1.9,3.6*3D
$GPVTG,170.5,T,,M,26.9,N,49.7,K*64
$GPGSV,3,1,10,02,12,196,22,07,11,046,15,08,49,046,26,10,80,174,28*76
$GPGSV,3,2,10,15,37,289,34,21,07,320,16,24,30,284,29,26,48,298,31*76
$GPGSV,3,3,10,27,19,047,,28,35,119,32*72
$GPGGA,140159.0,4011.387509,N,00824.078753,W,1,07,1.9,108.5,M,,,,*12
$GPRMC,140159.0,A,4011.387509,N,00824.078753,W,26.9,176.7,260508,,,A*43
$GPGSA,A,3,02,08,10,15,24,26,28,,,,,,4.0,1.9,3.5*3F
$GPVTG,176.7,T,,M,26.9,N,49.9,K*6E
$GPGSV,3,1,10,02,12,196,24,07,11,046,15,08,49,046,27,10,80,174,29*70
$GPGSV,3,2,10,15,37,289,31,21,07,320,16,24,30,284,33,26,48,298,32*7B
$GPGSV,3,3,10,27,19,047,,28,35,119,25*74
$GPGGA,140200.0,4011.379276,N,00824.079498,W,1,07,1.9,108.5,M,,,,*16
$GPRMC,140200.0,A,4011.379276,N,00824.079498,W,28.8,185.5,260508,,,A*46
$GPGSA,A,3,02,08,10,15,24,26,28,,,,,,3.8,1.9,3.3*36
$GPVTG,185.5,T,,M,28.8,N,53.4,K*69
$GPGSV,3,1,10,02,12,196,25,07,11,046,15,08,49,046,26,10,80,174,26*7F
$GPGSV,3,2,10,15,37,289,37,21,07,320,,24,30,284,35,26,48,298,30*7E
$GPGSV,3,3,10,27,19,047,,28,35,119,29*78
$GPGGA,140201.0,4011.370895,N,00824.081806,W,1,07,1.9,108.5,M,,,,*15
$GPRMC,140201.0,A,4011.370895,N,00824.081806,W,31.2,193.0,260508,,,A*45
$GPGSA,A,3,02,08,10,15,24,26,28,,,,,,3.9,1.9,3.3*37
$GPVTG,193.0,T,,M,31.2,N,57.7,K*6E
$GPGSV,3,1,10,02,12,196,24,07,11,046,15,08,49,046,27,10,80,174,25*7C
$GPGSV,3,2,10,15,37,289,37,21,07,320,,24,30,284,36,26,48,298,28*74
$GPGSV,3,3,10,27,19,047,,28,35,119,30*70
$GPGGA,140202.0,4011.362072,N,00824.084628,W,1,07,2.0,108.0,M,,,,*1C
$GPRMC,140202.0,A,4011.362072,N,00824.084628,W,32.6,193.6,260508,,,A*42
$GPGSA,A,3,02,08,10,15,24,26,28,,,,,,4.0,2.0,3.5*35
$GPVTG,193.6,T,,M,32.6,N,60.3,K*6F
$GPGSV,3,1,10,02,12,196,22,07,11,046,15,08,49,046,26,10,80,174,25*7B
$GPGSV,3,2,10,15,37,289,37,21,07,320,,24,30,284,36,26,48,298,29*75
$GPGSV,3,3,10,27,19,047,,28,35,119,31*71
$GPGGA,140203.0,4011.353089,N,00824.087585,W,1,07,2.2,108.5,M,,,,*1B
$GPRMC,140203.0,A,4011.353089,N,00824.087585,W,33.6,193.3,260508,,,A*46
$GPGSA,A,3,02,08,10,15,24,26,28,,,,,,4.3,2.2,3.6*37
$GPVTG,193.3,T,,M,33.6,N,62.2,K*68
$GPGSV,3,1,10,02,12,196,23,07,11,046,15,08,49,046,25,10,80,174,25*79
$GPGSV,3,2,10,15,37,289,37,21,07,320,,24,30,284,37,26,48,298,29*74
$GPGSV,3,3,10,27,19,047,,28,35,118,31*70
$GPGGA,140204.0,4011.343916,N,00824.090436,W,1,07,2.3,108.0,M,,,,*19
$GPRMC,140204.0,A,4011.343916,N,00824.090436,W,33.7,192.9,260508,,,A*4A
$GPGSA,A,3,02,08,10,15,24,26,28,,,,,,4.5,2.3,3.8*3E
$GPVTG,192.9,T,,M,33.7,N,62.4,K*64
$GPGSV,3,1,10,02,12,196,23,07,11,046,15,08,49,046,25,10,80,174,26*7A
$GPGSV,3,2,10,15,37,289,37,21,07,320,,24,30,284,36,26,48,298,28*74
$GPGSV,3,3,10,27,19,047,,28,35,118,30*71
$GPGGA,140205.0,4011.334804,N,00824.093011,W,1,07,2.5,108.0,M,,,,*1E
$GPRMC,140205.0,A,4011.334804,N,00824.093011,W,33.1,192.5,260508,,,A*41
$GPGSA,A,3,02,08,10,15,24,26,28,,,,,,4.6,2.5,3.8*3B
$GPVTG,192.5,T,,M,33.1,N,61.2,K*6B
$GPGSV,3,1,10,02,12,196,24,07,11,046,,08,49,046,26,10,80,174,26*7A
$GPGSV,3,2,10,15,37,289,36,21,07,320,,24,30,284,37,26,48,298,29*75
$GPGSV,3,3,10,27,19,047,,28,35,118,28*78
$GPGGA,140206.0,4011.325801,N,00824.095606,W,1,07,2.6,108.5,M,,,,*18
$GPRMC,140206.0,A,4011.325801,N,00824.095606,W,32.8,192.5,260508,,,A*49
$GPGSA,A,3,02,08,10,15,24,26,28,,,,,,4.7,2.6,3.9*38
$GPVTG,192.5,T,,M,32.8,N,60.8,K*68
$GPGSV,3,1,10,02,12,196,24,07,11,046,,08,49,046,25,10,80,174,25*7A
$GPGSV,3,2,10,15,37,289,37,21,07,320,,24,30,284,35,26,48,298,28*77
$GPGSV,3,3,10,27,19,047,,28,35,118,27*77
$GPGGA,140207.0,4011.316774,N,00824.098347,W,1,07,2.7,108.5,M,,,,*18
$GPRMC,140207.0,A,4011.316774,N,00824.098347,W,33.8,193.0,260508,,,A*4D
$GPGSA,A,3,02,08,10,15,24,26,28,,,,,,5.0,2.7,4.2*33
$GPVTG,193.0,T,,M,33.8,N,62.5,K*62
$GPGSV,3,1,10,02,12,196,20,07,11,046,,08,49,046,22,10,80,174,25*79
$GPGSV,3,2,10,15,37,289,36,21,07,320,,24,30,284,35,26,48,298,28*76
$GPGSV,3,3,10,27,19,047,,28,35,118,27*77
$GPGGA,140208.0,4011.307407,N,00824.101204,W,1,07,3.4,108.0,M,,,,*10
$GPRMC,140208.0,A,4011.307407,N,00824.101204,W,35.1,193.2,260508,,,A*4F
$GPGSA,A,3,02,08,10,15,24,26,28,,,,,,5.4,3.4,4.2*35
$GPVTG,193.2,T,,M,35.1,N,65.0,K*6D
$GPGSV,3,1,10,02,11,196,21,07,11,046,,08,49,046,22,10,80,174,26*78
$GPGSV,3,2,10,15,37,289,35,21,07,320,,24,30,284,35,26,48,298,30*7C
$GPGSV,3,3,10,27,19,047,,28,35,118,26*76
$GPGGA,140209.0,4011.297842,N,00824.104095,W,1,07,3.3,108.0,M,,,,*1C
$GPRMC,140209.0,A,4011.297842,N,00824.104095,W,35.6,193.0,260508,,,A*41
$GPGSA,A,3,02,10,15,24,26,28,255,,,,,,5.2,3.3,4.0*0C
$GPVTG,193.0,T,,M,35.6,N,65.9,K*61
$GPGSV,3,1,10,02,11,196,21,07,11,046,,08,49,046,22,10,80,174,26*78
$GPGSV,3,2,10,15,37,289,35,21,07,320,,24,30,284,35,26,48,298,29*74
$GPGSV,3,3,10,27,19,047,,28,35,118,28*78
$GPGGA,140210.0,4011.288156,N,00824.107073,W,1,07,3.4,108.0,M,,,,*1A
$GPRMC,140210.0,A,4011.288156,N,00824.107073,W,35.9,193.0,260508,,,A*4F
$GPGSA,A,3,10,15,24,26,28,255,255,,,,,,5.2,3.4,3.9*35
$GPVTG,193.0,T,,M,35.9,N,66.5,K*61
$GPGSV,3,1,10,02,11,196,21,07,11,046,,08,49,046,22,10,80,174,26*78
$GPGSV,3,2,10,15,37,289,34,21,07,320,,24,30,284,35,26,48,298,29*75
$GPGSV,3,3,10,27,19,047,,28,35,118,27*77
$GPGGA,140211.0,4011.278351,N,00824.110090,W,1,07,4.7,107.5,M,,,,*14
$GPRMC,140211.0,A,4011.278351,N,00824.110090,W,36.2,193.1,260508,,,A*46
$GPGSA,A,3,10,15,24,26,28,255,255,,,,,,6.5,4.7,4.5*3E
$GPVTG,193.1,T,,M,36.2,N,67.1,K*6D
$GPGSV,3,1,10,02,11,196,22,07,11,046,,08,49,046,22,10,80,174,27*7A
$GPGSV,3,2,10,15,37,289,35,21,07,320,,24,30,284,36,26,48,298,30*7F
$GPGSV,3,3,10,27,19,047,,28,35,118,27*77
$GPGGA,140212.0,4011.268683,N,00824.112932,W,1,07,4.4,107.5,M,,,,*1C
$GPRMC,140212.0,A,4011.268683,N,00824.112932,W,35.6,192.9,260508,,,A*43
$GPGSA,A,3,02,10,15,24,26,28,255,,,,,,6.3,4.4,4.5*0B
$GPVTG,192.9,T,,M,35.6,N,65.9,K*69
$GPGSV,3,1,10,02,11,196,21,07,11,046,,08,49,046,22,10,80,174,26*78
$GPGSV,3,2,10,15,37,289,33,21,07,320,,24,30,284,35,26,48,298,29*72
$GPGSV,3,3,10,27,19,047,,28,35,118,24*74
$GPGGA,140213.0,4011.259432,N,00824.115522,W,1,07,4.5,107.0,M,,,,*19
$GPRMC,140213.0,A,4011.259432,N,00824.115522,W,33.6,192.3,260508,,,A*4E
$GPGSA,A,3,02,10,15,24,26,28,255,,,,,,6.3,4.5,4.4*0B
$GPVTG,192.3,T,,M,33.6,N,62.3,K*68
$GPGSV,3,1,10,02,11,196,20,07,11,046,,08,49,046,22,10,80,174,25*7A
$GPGSV,3,2,10,15,37,289,31,21,07,320,,24,30,284,33,26,48,298,31*7F
$GPGSV,3,3,10,27,19,047,,28,35,118,24*74
$GPGGA,140214.0,4011.250882,N,00824.117604,W,1,07,4.1,106.5,M,,,,*15
$GPRMC,140214.0,A,4011.250882,N,00824.117604,W,31.6,189.8,260508,,,A*41
$GPGSA,A,3,02,10,15,24,26,28,255,,,,,,5.9,4.1,4.2*00
$GPVTG,189.8,T,,M,31.6,N,58.5,K*64
$GPGSV,3,1,10,02,11,196,27,07,11,046,,08,49,046,20,10,80,174,27*7D
$GPGSV,3,2,10,15,37,289,34,21,07,320,,24,30,284,26,26,48,298,29*77
$GPGSV,3,3,10,27,19,047,,28,35,118,26*76
$GPGGA,140215.0,4011.243296,N,00824.118559,W,1,06,3.1,106.5,M,,,,*1B
$GPRMC,140215.0,A,4011.243296,N,00824.118559,W,28.5,183.9,260508,,,A*49
$GPGSA,A,3,02,10,15,24,26,28,,,,,,,4.7,3.1,3.5*3A
$GPVTG,183.9,T,,M,28.5,N,52.9,K*62
$GPGSV,3,1,10,02,11,196,27,07,11,046,16,08,49,046,20,10,80,174,30*7C
$GPGSV,3,2,10,15,37,289,33,21,07,320,,24,30,284,34,26,48,298,28*72
$GPGSV,3,3,10,27,19,047,,28,35,118,35*74
$GPGGA,140216.0,4011.235692,N,00824.118896,W,1,06,3.1,106.0,M,,,,*12
$GPRMC,140216.0,A,4011.235692,N,00824.118896,W,27.4,180.7,260508,,,A*46
$GPGSA,A,3,10,15,24,26,28,255,,,,,,,4.5,3.1,3.2*0F
$GPVTG,180.7,T,,M,27.4,N,50.7,K*6D
$GPGSV,3,1,10,02,11,196,21,07,11,046,16,08,49,046,32,10,80,174,30*79
$GPGSV,3,2,10,15,37,289,32,21,07,320,,24,30,284,35,26,48,298,31*7A
$GPGSV,3,3,10,27,19,047,,28,35,118,29*79
$GPGGA,140217.0,4011.229639,N,00824.118323,W,1,07,2.2,105.5,M,,,,*1F
$GPRMC,140217.0,A,4011.229639,N,00824.118323,W,21.6,177.8,260508,,,A*4D
$GPGSA,A,3,02,08,10,15,24,26,28,,,,,,3.5,2.2,2.7*36
$GPVTG,177.8,T,,M,21.6,N,40.1,K*69
$GPGSV,3,1,10,02,11,196,21,07,11,046,16,08,49,046,28,10,80,174,22*71
$GPGSV,3,2,10,15,37,289,32,21,08,320,,24,30,284,34,26,48,298,31*74
$GPGSV,3,3,10,27,19,047,,28,35,118,27*77
$GPGGA,140218.0,4011.224997,N,00824.117594,W,1,07,2.6,105.5,M,,,,*17
$GPRMC,140218.0,A,4011.224997,N,00824.117594,W,16.4,175.8,260508,,,A*45
$GPGSA,A,3,08,10,15,24,26,28,255,,,,,,4.9,2.6,4.1*09
$GPVTG,175.8,T,,M,16.4,N,30.3,K*68
$GPGSV,3,1,10,02,11,196,20,07,11,046,15,08,49,046,29,10,80,174,22*72
$GPGSV,3,2,10,15,37,289,33,21,08,320,,24,30,284,31,26,48,298,30*71
$GPGSV,3,3,10,27,19,047,,28,35,118,24*74
$GPGGA,140219.0,4011.220647,N,00824.117815,W,1,07,2.5,105.5,M,,,,*17
$GPRMC,140219.0,A,4011.220647,N,00824.117815,W,15.3,187.4,260508,,,A*43
$GPGSA,A,3,02,08,15,24,26,28,255,,,,,,4.8,2.5,4.1*08
$GPVTG,187.4,T,,M,15.3,N,28.4,K*63
$GPGSV,3,1,10,02,11,196,23,07,11,046,15,08,49,046,27,10,80,174,21*7C
$GPGSV,3,2,10,15,37,289,29,21,08,320,,24,30,284,26,26,48,298,33*7F
$GPGSV,3,3,10,27,19,047,,28,35,118,24*74
$GPGGA,140220.0,4011.217114,N,00824.120450,W,1,07,1.9,106.0,M,,,,*18
$GPRMC,140220.0,A,4011.217114,N,00824.120450,W,15.1,213.7,260508,,,A*4A
$GPGSA,A,3,02,08,10,15,24,26,28,,,,,,4.0,1.9,3.5*3F
$GPVTG,213.7,T,,M,15.1,N,27.9,K*6E
$GPGSV,3,1,10,02,11,196,23,07,11,046,15,08,49,046,28,10,80,174,21*73
$GPGSV,3,2,10,15,37,289,30,21,08,320,,24,30,284,20,26,48,298,34*76
$GPGSV,3,3,10,27,19,047,,28,35,118,26*76
$GPGGA,140221.0,4011.214509,N,00824.125424,W,1,07,1.9,106.0,M,,,,*14
$GPRMC,140221.0,A,4011.214509,N,00824.125424,W,17.5,234.4,260508,,,A*46
$GPGSA,A,3,08,15,24,26,28,255,255,,,,,,4.1,1.9,3.6*3E
$GPVTG,234.4,T,,M,17.5,N,32.4,K*67
$GPGSV,3,1,10,02,11,196,23,07,11,046,15,08,49,046,31,10,80,174,21*7B
$GPGSV,3,2,10,15,37,289,34,21,08,320,,24,30,284,28,26,48,298,35*7B
$GPGSV,3,3,10,27,19,047,,28,35,118,29*79
$GPGGA,140222.0,4011.212756,N,00824.132364,W,1,07,1.9,106.0,M,,,,*1C
$GPRMC,140222.0,A,4011.212756,N,00824.132364,W,19.4,251.5,260508,,,A*43
$GPGSA,A,3,08,10,15,24,26,28,255,,,,,,4.3,1.9,3.8*01
$GPVTG,251.5,T,,M,19.4,N,35.9,K*60
$GPGSV,3,1,10,02,11,196,23,07,11,046,15,08,49,046,33,10,80,174,22*7A
$GPGSV,3,2,10,15,37,289,34,21,08,320,,24,30,284,30,26,48,298,35*72
$GPGSV,3,3,10,27,19,047,,28,35,118,30*71
$GPGGA,140223.0,4011.210730,N,00824.140059,W,1,07,2.4,107.0,M,,,,*18
$GPRMC,140223.0,A,4011.210730,N,00824.140059,W,21.7,252.5,260508,,,A*43
$GPGSA,A,3,08,10,15,24,26,28,255,,,,,,5.1,2.4,4.5*06
$GPVTG,252.5,T,,M,21.7,N,40.2,K*62
$GPGSV,3,1,10,02,11,196,22,07,11,046,22,08,49,046,33,10,80,174,26*7B
$GPGSV,3,2,10,15,37,289,34,21,08,320,,24,30,284,30,26,48,298,35*72
$GPGSV,3,3,10,27,18,047,,28,35,118,30*70
$GPGGA,140224.0,4011.208824,N,00824.148573,W,1,08,1.4,108.0,M,,,,*1A
$GPRMC,140224.0,A,4011.208824,N,00824.148573,W,24.6,253.0,260508,,,A*42
$GPGSA,A,3,02,07,08,10,15,24,26,28,,,,,2.9,1.4,2.6*38
$GPVTG,253.0,T,,M,24.6,N,45.6,K*63
$GPGSV,3,1,10,02,11,196,23,07,11,046,22,08,49,046,34,10,80,172,26*7B
$GPGSV,3,2,10,15,37,289,35,21,08,320,,24,30,284,30,26,48,298,34*72
$GPGSV,3,3,10,27,18,047,,28,35,118,30*70
$GPGGA,140225.0,4011.206364,N,00824.158289,W,1,08,1.4,109.0,M,,,,*18
$GPRMC,140225.0,A,4011.206364,N,00824.158289,W,27.6,253.5,260508,,,A*47
$GPGSA,A,3,02,08,10,15,24,26,28,255,,,,,3.1,1.4,2.7*05
$GPVTG,253.5,T,,M,27.6,N,51.1,K*67
$GPGSV,3,1,10,02,11,196,26,07,11,046,22,08,49,046,33,10,80,172,24*7B
$GPGSV,3,2,10,15,37,289,36,21,08,320,,24,30,284,30,26,48,298,34*71
$GPGSV,3,3,10,27,18,047,,28,35,118,26*77
$GPGGA,140226.0,4011.204141,N,00824.168348,W,1,08,1.5,109.5,M,,,,*17
$GPRMC,140226.0,A,4011.204141,N,00824.168348,W,28.2,254.6,260508,,,A*43
$GPGSA,A,3,02,08,10,15,24,26,28,255,,,,,3.2,1.5,2.8*08
$GPVTG,254.6,T,,M,28.2,N,52.2,K*68
$GPGSV,3,1,10,02,11,196,27,07,11,046,21,08,49,046,30,10,80,172,23*7D
$GPGSV,3,2,10,15,37,289,37,21,08,320,,24,30,284,29,26,48,299,34*79
$GPGSV,3,3,10,27,18,047,,28,35,118,24*75
$GPGGA,140227.0,4011.202012,N,00824.178154,W,1,08,1.6,110.5,M,,,,*12
$GPRMC,140227.0,A,4011.202012,N,00824.178154,W,26.5,254.6,260508,,,A*44
$GPGSA,A,3,02,07,08,10,15,24,26,28,,,,,3.1,1.6,2.7*32
$GPVTG,254.6,T,,M,26.5,N,49.0,K*69
$GPGSV,3,1,10,02,11,196,26,07,11,046,23,08,49,046,29,10,80,172,23*76
$GPGSV,3,2,10,15,37,289,37,21,08,320,,24,30,282,28,26,48,299,33*79
$GPGSV,3,3,10,27,18,047,,28,35,118,26*77
$GPGGA,140228.0,4011.200073,N,00824.187589,W,1,08,1.6,111.0,M,,,,*18
$GPRMC,140228.0,A,4011.200073,N,00824.187589,W,26.0,254.0,260508,,,A*49
$GPGSA,A,3,02,07,08,10,15,24,26,28,,,,,3.1,1.6,2.6*33
$GPVTG,254.0,T,,M,26.0,N,48.2,K*69
$GPGSV,3,1,10,02,11,196,20,07,11,046,23,08,49,046,25,10,80,172,25*7A
$GPGSV,3,2,10,15,37,289,36,21,08,320,,24,30,282,30,26,48,299,34*76
$GPGSV,3,3,10,27,18,047,,28,35,118,25*74
$GPGGA,140229.0,4011.197993,N,00824.196868,W,1,08,1.8,111.5,M,,,,*1A
$GPRMC,140229.0,A,4011.197993,N,00824.196868,W,26.4,253.0,260508,,,A*43
$GPGSA,A,3,02,08,10,15,24,26,28,255,,,,,3.2,1.8,2.6*0B
$GPVTG,253.0,T,,M,26.4,N,48.9,K*61
$GPGSV,3,1,10,02,11,196,20,07,11,046,23,08,49,046,26,10,80,172,25*79
$GPGSV,3,2,10,15,37,289,34,21,08,320,,24,30,282,29,26,48,299,35*7D
$GPGSV,3,3,10,27,18,047,,28,35,118,23*72
$GPGGA,140230.0,4011.195846,N,00824.205935,W,1,08,1.8,111.5,M,,,,*19
$GPRMC,140230.0,A,4011.195846,N,00824.205935,W,25.5,252.8,260508,,,A*4B
$GPGSA,A,3,08,10,15,24,26,28,255,255,,,,,3.1,1.8,2.5*3B
$GPVTG,252.8,T,,M,25.5,N,47.3,K*6F
$GPGSV,3,1,10,02,11,196,22,07,11,046,20,08,49,046,27,10,80,172,22*7E
$GPGSV,3,2,10,15,37,289,34,21,08,320,,24,30,282,30,26,48,299,35*75
$GPGSV,3,3,10,27,18,047,,28,35,118,22*73
$GPGGA,140231.0,4011.193661,N,00824.214852,W,1,08,2.0,111.5,M,,,,*1E
$GPRMC,140231.0,A,4011.193661,N,00824.214852,W,25.6,252.6,260508,,,A*4A
$GPGSA,A,3,02,07,08,10,15,24,26,28,,,,,3.3,2.0,2.6*34
$GPVTG,252.6,T,,M,25.6,N,47.3,K*62
$GPGSV,3,1,10,02,11,196,25,07,11,046,26,08,49,046,27,10,80,172,22*7F
$GPGSV,3,2,10,15,37,289,32,21,08,320,,24,30,282,31,26,48,299,35*72
$GPGSV,3,3,10,27,18,047,,28,35,118,20*71
$GPGGA,140232.0,4011.191304,N,00824.224035,W,1,08,1.8,111.5,M,,,,*18
$GPRMC,140232.0,A,4011.191304,N,00824.224035,W,26.9,252.3,260508,,,A*4E
$GPGSA,A,3,02,07,08,15,24,26,28,255,,,,,3.1,1.8,2.4*0C
$GPVTG,252.3,T,,M,26.9,N,49.8,K*6E
$GPGSV,3,1,10,02,11,196,22,07,11,046,25,08,49,046,28,10,80,172,20*76
$GPGSV,3,2,10,15,37,289,32,21,08,320,,24,30,282,33,26,48,299,34*71
$GPGSV,3,3,10,27,18,047,,28,35,118,22*73
$GPGGA,140233.0,4011.189001,N,00824.233596,W,1,08,1.8,112.0,M,,,,*1A
$GPRMC,140233.0,A,4011.189001,N,00824.233596,W,27.7,252.8,260508,,,A*4E
$GPGSA,A,3,02,07,08,10,15,24,26,28,,,,,2.9,1.8,2.3*31
$GPVTG,252.8,T,,M,27.7,N,51.2,K*69
$GPGSV,3,1,10,02,11,196,23,07,11,046,22,08,49,046,23,10,80,172,22*79
$GPGSV,3,2,10,15,37,289,32,21,08,320,,24,30,282,34,26,48,299,32*70
$GPGSV,3,3,10,27,18,047,,28,35,118,25*74
$GPGGA,140234.0,4011.186758,N,00824.243242,W,1,08,1.6,112.0,M,,,,*1E
$GPRMC,140234.0,A,4011.186758,N,00824.243242,W,27.8,252.8,260508,,,A*4B
$GPGSA,A,3,02,07,08,10,15,24,26,28,,,,,2.8,1.6,2.3*3E
$GPVTG,252.8,T,,M,27.8,N,51.4,K*60
$GPGSV,3,1,10,02,11,196,21,07,11,046,20,08,49,046,22,10,80,172,23*79
$GPGSV,3,2,10,15,37,289,31,21,08,320,,24,30,282,34,26,48,299,33*72
$GPGSV,3,3,10,27,18,047,,28,35,118,24*75
$GPGGA,140235.0,4011.184475,N,00824.252928,W,1,08,1.8,111.5,M,,,,*1E
$GPRMC,140235.0,A,4011.184475,N,00824.252928,W,28.0,252.6,260508,,,A*4A
$GPGSA,A,3,02,07,08,10,15,24,26,28,,,,,3.0,1.8,2.4*3E
$GPVTG,252.6,T,,M,28.0,N,51.9,K*64
$GPGSV,3,1,10,02,11,196,22,07,11,046,21,08,49,046,22,10,80,172,21*79
$GPGSV,3,2,10,15,37,289,31,21,08,320,,24,30,282,34,26,48,299,33*72
$GPGSV,3,3,10,27,18,047,,28,35,118,24*75
$GPGGA,140236.0,4011.182247,N,00824.262594,W,1,08,1.9,111.0,M,,,,*10
$GPRMC,140236.0,A,4011.182247,N,00824.262594,W,28.1,252.2,260508,,,A*45
$GPGSA,A,3,02,07,08,10,15,24,26,28,,,,,3.1,1.9,2.4*3E
$GPVTG,252.2,T,,M,28.1,N,52.0,K*6B
$GPGSV,3,1,10,02,11,196,22,07,11,046,21,08,49,046,22,10,80,172,21*79
$GPGSV,3,2,10,15,37,289,31,21,08,320,,24,30,282,33,26,48,299,33*75
$GPGSV,3,3,10,27,18,047,,28,35,118,23*72
$GPGGA,140237.0,4011.179939,N,00824.272310,W,1,08,1.8,111.0,M,,,,*1D
$GPRMC,140237.0,A,4011.179939,N,00824.272310,W,28.1,252.8,260508,,,A*43
$GPGSA,A,3,07,10,15,24,26,28,255,255,,,,,3.0,1.8,2.3*33
$GPVTG,252.8,T,,M,28.1,N,52.0,K*61
$GPGSV,3,1,10,02,11,196,22,07,11,046,23,08,49,046,21,10,80,172,22*7B
$GPGSV,3,2,10,15,37,289,31,21,08,320,,24,30,282,34,26,48,299,33*72
$GPGSV,3,3,10,27,18,047,,28,35,118,23*72
$GPGGA,140238.0,4011.177582,N,00824.282182,W,1,08,1.9,111.0,M,,,,*17
$GPRMC,140238.0,A,4011.177582,N,00824.282182,W,28.3,253.0,260508,,,A*43
$GPGSA,A,3,07,08,10,15,24,26,28,255,,,,,3.0,1.9,2.3*08
$GPVTG,253.0,T,,M,28.3,N,52.3,K*69
$GPGSV,3,1,10,02,11,196,22,07,11,046,22,08,49,046,21,10,80,172,24*7C
$GPGSV,3,2,10,15,37,289,25,21,08,320,,24,30,282,35,26,48,299,34*71
$GPGSV,3,3,10,27,18,047,,28,35,118,23*72
$GPGGA,140239.0,4011.175246,N,00824.292070,W,1,08,2.3,110.5,M,,,,*1B
$GPRMC,140239.0,A,4011.175246,N,00824.292070,W,28.5,253.3,260508,,,A*47
$GPGSA,A,3,07,08,10,15,24,26,255,255,,,,,3.2,2.3,2.2*3A
$GPVTG,253.3,T,,M,28.5,N,52.8,K*67
$GPGSV,3,1,10,02,11,196,22,07,11,046,27,08,49,046,21,10,80,172,23*7E
$GPGSV,3,2,10,15,37,289,28,21,08,320,,24,30,282,35,26,48,299,33*7B
$GPGSV,3,3,10,27,18,047,,28,35,118,23*72
$GPGGA,140240.0,4011.172822,N,00824.302113,W,1,08,2.4,110.5,M,,,,*11
$GPRMC,140240.0,A,4011.172822,N,00824.302113,W,28.7,252.9,260508,,,A*43
$GPGSA,A,3,07,08,10,15,24,26,255,255,,,,,3.2,2.4,2.2*3D
$GPVTG,252.9,T,,M,28.7,N,53.2,K*65
$GPGSV,3,1,10,02,11,196,22,07,11,046,25,08,49,046,21,10,80,172,21*7E
$GPGSV,3,2,10,15,37,289,30,21,08,320,,24,30,282,34,26,48,299,31*71
$GPGSV,3,3,10,27,18,047,,28,35,118,23*72
$GPGGA,140241.0,4011.170366,N,00824.312106,W,1,08,4.2,110.5,M,,,,*1C
$GPRMC,140241.0,A,4011.170366,N,00824.312106,W,28.7,252.3,260508,,,A*44
$GPGSA,A,3,07,10,15,24,26,255,255,255,,,,,4.9,4.2,2.5*0C
$GPVTG,252.3,T,,M,28.7,N,53.2,K*6F
$GPGSV,3,1,10,02,11,196,22,07,11,046,26,08,49,046,21,10,80,172,21*7D
$GPGSV,3,2,10,15,37,289,32,21,08,320,,24,30,282,34,26,48,299,33*71
$GPGSV,3,3,10,27,18,047,,28,35,118,24*75
$GPGGA,140242.0,4011.167891,N,00824.322078,W,1,08,2.0,110.0,M,,,,*10
$GPRMC,140242.0,A,4011.167891,N,00824.322078,W,28.5,251.9,260508,,,A*42
$GPGSA,A,3,07,10,15,24,26,28,255,255,,,,,3.1,2.0,2.3*39
$GPVTG,251.9,T,,M,28.5,N,52.8,K*6F
$GPGSV,3,1,10,02,11,196,22,07,11,046,25,08,49,046,21,10,80,172,22*7D
$GPGSV,3,2,10,15,37,289,29,21,08,320,,24,30,282,34,26,48,299,34*7C
$GPGSV,3,3,10,27,18,047,,28,35,118,23*72
$GPGGA,140243.0,4011.165575,N,00824.331594,W,1,07,2.6,110.0,M,,,,*18
$GPRMC,140243.0,A,4011.165575,N,00824.331594,W,26.7,251.6,260508,,,A*40
$GPGSA,A,3,07,10,15,24,26,28,255,,,,,,3.6,2.6,2.5*0C
$GPVTG,251.6,T,,M,26.7,N,49.4,K*6A
$GPGSV,3,1,10,02,11,196,21,07,11,046,25,08,49,046,21,10,80,172,21*7D
$GPGSV,3,2,10,15,37,289,30,21,08,320,,24,30,282,34,26,48,299,36*76
$GPGSV,3,3,10,27,18,047,,28,35,118,21*70
$GPGGA,140244.0,4011.163171,N,00824.340178,W,1,07,2.8,110.0,M,,,,*17
$GPRMC,140244.0,A,4011.163171,N,00824.340178,W,23.4,249.0,260508,,,A*48
$GPGSA,A,3,07,10,15,24,26,28,255,,,,,,3.7,2.8,2.4*02
$GPVTG,249.0,T,,M,23.4,N,43.2,K*6F
$GPGSV,3,1,10,02,11,196,23,07,11,046,26,08,49,046,21,10,80,172,22*7F
$GPGSV,3,2,10,15,37,289,31,21,08,320,,24,30,282,33,26,48,299,34*72
$GPGSV,3,3,10,27,18,047,,28,35,118,23*72
$GPGGA,140245.0,4011.161660,N,00824.346580,W,1,08,1.8,110.5,M,,,,*1F
$GPRMC,140245.0,A,4011.161660,N,00824.346580,W,17.5,249.5,260508,,,A*4A
$GPGSA,A,3,02,07,10,15,24,26,28,255,,,,,2.7,1.8,2.1*07
$GPVTG,249.5,T,,M,17.5,N,32.5,K*6D
$GPGSV,3,1,10,02,11,196,23,07,11,046,22,08,49,046,26,10,80,172,25*7B
$GPGSV,3,2,10,15,37,289,35,21,08,320,,24,30,282,31,26,48,299,32*72
$GPGSV,3,3,10,27,18,047,,28,35,118,25*74
$GPGGA,140246.0,4011.160282,N,00824.351142,W,1,08,1.6,110.5,M,,,,*17
$GPRMC,140246.0,A,4011.160282,N,00824.351142,W,13.1,244.2,260508,,,A*46
$GPGSA,A,3,02,07,08,10,15,24,26,28,,,,,2.8,1.6,2.3*3E
$GPVTG,244.2,T,,M,13.1,N,24.3,K*66
$GPGSV,3,1,10,02,11,196,26,07,11,046,22,08,49,046,22,10,80,172,25*7A
$GPGSV,3,2,10,15,37,289,35,21,08,320,,24,30,282,31,26,48,299,32*72
$GPGSV,3,3,10,27,18,047,,28,35,118,25*74
$GPGGA,140247.0,4011.157966,N,00824.353858,W,1,08,1.6,110.5,M,,,,*13
$GPRMC,140247.0,A,4011.157966,N,00824.353858,W,11.3,217.2,260508,,,A*44
$GPGSA,A,3,02,08,15,24,26,28,255,255,,,,,2.8,1.6,2.3*38
$GPVTG,217.2,T,,M,11.3,N,21.0,K*66
$GPGSV,3,1,10,02,11,196,26,07,11,046,22,08,49,046,24,10,80,172,20*79
$GPGSV,3,2,10,15,37,289,31,21,08,320,,24,30,282,30,26,48,299,27*73
$GPGSV,3,3,10,27,18,047,,28,35,118,29*78
$GPGGA,140248.0,4011.155019,N,00824.354532,W,1,08,1.3,110.5,M,,,,*1C
$GPRMC,140248.0,A,4011.155019,N,00824.354532,W,10.7,185.6,260508,,,A*47
$GPGSA,A,3,02,08,10,15,24,26,28,255,,,,,2.7,1.3,2.4*06
$GPVTG,185.6,T,,M,10.7,N,19.8,K*6C
$GPGSV,3,1,10,02,11,196,22,07,11,046,20,08,49,046,26,10,80,172,20*7D
$GPGSV,3,2,10,15,37,289,32,21,08,320,,24,30,282,24,26,48,299,31*72
$GPGSV,3,3,10,27,18,047,,28,35,118,25*74
$GPGGA,140249.0,4011.151242,N,00824.353118,W,1,08,1.3,110.5,M,,,,*1E
$GPRMC,140249.0,A,4011.151242,N,00824.353118,W,14.5,163.6,260508,,,A*4B
$GPGSA,A,3,02,07,08,15,24,26,28,255,,,,,2.7,1.3,2.3*07
$GPVTG,163.6,T,,M,14.5,N,26.8,K*6E
$GPGSV,3,1,10,02,11,196,28,07,11,046,20,08,49,046,26,10,80,172,24*73
$GPGSV,3,2,10,15,37,289,34,21,08,320,,24,30,282,24,26,48,299,33*76
$GPGSV,3,3,10,27,18,047,,28,35,118,28*79
$GPGGA,140250.0,4011.146794,N,00824.351046,W,1,08,1.3,110.5,M,,,,*16
$GPRMC,140250.0,A,4011.146794,N,00824.351046,W,17.0,161.0,260508,,,A*41
$GPGSA,A,3,02,10,15,26,28,255,255,255,,,,,2.7,1.3,2.4*08
$GPVTG,161.0,T,,M,17.0,N,31.5,K*67
$GPGSV,3,1,10,02,11,196,28,07,11,046,20,08,49,046,20,10,80,172,26*77
$GPGSV,3,2,10,15,37,289,34,21,08,320,,24,30,282,24,26,48,299,34*71
$GPGSV,3,3,10,27,18,047,,28,35,118,28*79
$GPGGA,140251.0,4011.141609,N,00824.349065,W,1,08,1.4,110.0,M,,,,*1F
$GPRMC,140251.0,A,4011.141609,N,00824.349065,W,20.3,164.3,260508,,,A*4B
$GPGSA,A,3,02,08,10,15,26,28,255,255,,,,,2.8,1.4,2.4*3A
$GPVTG,164.3,T,,M,20.3,N,37.6,K*63
$GPGSV,3,1,10,02,11,196,27,07,11,046,20,08,49,046,20,10,80,172,25*7B
$GPGSV,3,2,10,15,37,289,34,21,08,320,,24,30,282,24,26,48,299,33*76
$GPGSV,3,3,10,27,18,047,,28,35,118,29*78
$GPGGA,140252.0,4011.135856,N,00824.346872,W,1,08,2.5,109.5,M,,,,*15
$GPRMC,140252.0,A,4011.135856,N,00824.346872,W,21.8,164.1,260508,,,A*46
$GPGSA,A,3,02,10,15,26,28,255,255,255,,,,,4.9,2.5,4.1*06
$GPVTG,164.1,T,,M,21.8,N,40.4,K*69
$GPGSV,3,1,10,02,11,196,26,07,11,046,20,08,49,046,20,10,80,172,25*7A
$GPGSV,3,2,10,15,37,289,33,21,08,320,,24,30,282,24,26,48,299,33*71
$GPGSV,3,3,10,27,18,047,,28,35,118,30*70
$GPGGA,140253.0,4011.130145,N,00824.344609,W,1,08,2.5,109.0,M,,,,*1F
$GPRMC,140253.0,A,4011.130145,N,00824.344609,W,21.3,164.1,260508,,,A*42
$GPGSA,A,3,02,10,15,26,28,255,255,255,,,,,4.8,2.5,4.1*07
$GPVTG,164.1,T,,M,21.3,N,39.4,K*6C
$GPGSV,3,1,10,02,11,196,26,07,11,046,20,08,49,046,20,10,80,172,25*7A
$GPGSV,3,2,10,15,37,289,33,21,08,320,,24,30,282,24,26,48,299,33*71
$GPGSV,3,3,10,27,18,047,,28,35,118,31*71
$GPGGA,140254.0,4011.124573,N,00824.342622,W,1,08,3.2,108.5,M,,,,*11
$GPRMC,140254.0,A,4011.124573,N,00824.342622,W,19.6,167.0,260508,,,A*42
$GPGSA,A,3,10,15,26,28,255,255,255,255,,,,,5.8,3.2,4.8*39
$GPVTG,167.0,T,,M,19.6,N,36.4,K*6F
$GPGSV,3,1,10,02,11,196,26,07,11,046,20,08,49,046,20,10,80,172,24*7B
$GPGSV,3,2,10,15,37,289,33,21,08,320,,24,30,282,24,26,48,299,33*71
$GPGSV,3,3,10,27,18,047,,28,35,118,33*73
$GPGGA,140255.0,4011.119662,N,00824.341109,W,1,08,3.3,108.0,M,,,,*14
$GPRMC,140255.0,A,4011.119662,N,00824.341109,W,17.1,170.3,260508,,,A*4F
$GPGSA,A,3,10,15,26,28,255,255,255,255,,,,,5.8,3.3,4.7*37
$GPVTG,170.3,T,,M,17.1,N,31.7,K*67
$GPGSV,3,1,10,02,11,196,26,07,11,046,20,08,49,046,20,10,80,172,22*7D
$GPGSV,3,2,10,15,37,289,33,21,08,320,,24,30,282,24,26,48,299,33*71
$GPGSV,3,3,10,27,18,047,,28,35,118,32*72
$GPGGA,140256.0,4011.115762,N,00824.339887,W,1,06,9.2,107.5,M,,,,*15
$GPRMC,140256.0,A,4011.115762,N,00824.339887,W,14.2,173.6,260508,,,A*47
$GPGSA,A,3,10,15,26,28,255,255,,,,,,,9.8,9.2,3.4*34
$GPVTG,173.6,T,,M,14.2,N,26.3,K*63
$GPGSV,3,1,10,02,11,196,26,07,11,046,20,08,49,046,20,10,80,172,22*7D
$GPGSV,3,2,10,15,37,289,34,21,08,320,,24,30,282,24,26,48,299,34*71
$GPGSV,3,3,10,27,18,047,,28,35,118,27*76
$GPGGA,140257.0,4011.112473,N,00824.338901,W,1,06,9.2,107.5,M,,,,*1E
$GPRMC,140257.0,A,4011.112473,N,00824.338901,W,12.6,171.6,260508,,,A*4C
$GPGSA,A,3,10,15,26,28,255,255,,,,,,,9.8,9.2,3.4*34
$GPVTG,171.6,T,,M,12.6,N,23.4,K*61
$GPGSV,3,1,10,02,11,196,26,07,11,046,20,08,49,046,25,10,80,172,22*78
$GPGSV,3,2,10,15,37,289,32,21,08,320,,24,30,282,28,26,48,299,33*7C
$GPGSV,3,3,10,27,18,047,,28,35,118,24*75
$GPGGA,140258.0,4011.109423,N,00824.337950,W,1,06,7.6,107.5,M,,,,*1F
$GPRMC,140258.0,A,4011.109423,N,00824.337950,W,12.0,168.6,260508,,,A*49
$GPGSA,A,3,15,24,26,28,255,255,,,,,,,9.5,7.6,5.6*30
$GPVTG,168.6,T,,M,12.0,N,22.2,K*68
$GPGSV,3,1,10,02,11,196,26,07,11,046,20,08,49,046,25,10,80,172,22*78
$GPGSV,3,2,10,15,37,289,31,21,08,320,21,24,30,282,28,26,48,299,31*7E
$GPGSV,3,3,10,27,18,047,,28,35,118,26*77
$GPGGA,140259.0,4011.105947,N,00824.336718,W,1,06,7.7,107.5,M,,,,*1F
$GPRMC,140259.0,A,4011.105947,N,00824.336718,W,13.4,161.9,260508,,,A*4B
$GPGSA,A,3,15,24,26,28,255,255,,,,,,,9.6,7.7,5.7*33
$GPVTG,161.9,T,,M,13.4,N,24.7,K*68
$GPGSV,3,1,10,02,11,196,26,07,11,046,20,08,49,046,26,10,80,172,24*7D
$GPGSV,3,2,10,15,37,289,34,21,08,320,21,24,30,282,24,26,48,299,33*75
$GPGSV,3,3,10,27,18,047,,28,35,118,27*76
$GPGGA,140300.0,4011.101381,N,00824.335370,W,1,07,2.1,107.0,M,,,,*18
$GPRMC,140300.0,A,4011.101381,N,00824.335370,W,16.4,162.1,260508,,,A*45
$GPGSA,A,3,08,10,15,21,24,26,28,,,,,,3.5,2.1,2.8*3B
$GPVTG,162.1,T,,M,16.4,N,30.3,K*67
$GPGSV,3,1,10,02,11,196,26,07,11,046,20,08,49,046,26,10,80,172,22*7B
$GPGSV,3,2,10,15,37,289,30,21,08,320,23,24,30,282,24,26,48,299,33*73
$GPGSV,3,3,10,27,18,047,,28,35,118,28*79
$GPGGA,140301.0,4011.096661,N,00824.333449,W,1,07,2.0,106.5,M,,,,*13
$GPRMC,140301.0,A,4011.096661,N,00824.333449,W,18.4,162.1,260508,,,A*45
$GPGSA,A,3,08,10,15,21,26,28,255,,,,,,3.3,2.0,2.7*07
$GPVTG,162.1,T,,M,18.4,N,34.0,K*6E
$GPGSV,3,1,10,02,11,196,26,07,11,046,20,08,49,046,26,10,80,172,24*7D
$GPGSV,3,2,10,15,37,289,30,21,08,320,21,24,30,282,24,26,48,299,33*71
$GPGSV,3,3,10,27,18,047,,28,35,118,28*79
$GPGGA,140302.0,4011.091212,N,00824.331216,W,1,07,1.8,106.0,M,,,,*17
$GPRMC,140302.0,A,4011.091212,N,00824.331216,W,21.3,161.5,260508,,,A*45
$GPGSA,A,3,08,10,21,28,255,255,255,,,,,,3.3,1.8,2.7*0C
$GPVTG,161.5,T,,M,21.3,N,39.5,K*6C
$GPGSV,3,1,10,02,11,196,26,07,11,046,20,08,49,046,26,10,80,172,25*7C
$GPGSV,3,2,10,15,37,289,30,21,08,320,21,24,30,282,24,26,48,299,33*71
$GPGSV,3,3,10,27,18,047,,28,35,118,29*78
$GPGGA,140303.0,4011.085232,N,00824.328486,W,1,07,1.8,106.0,M,,,,*16
$GPRMC,140303.0,A,4011.085232,N,00824.328486,W,23.1,161.2,260508,,,A*43
$GPGSA,A,3,08,10,28,255,255,255,255,,,,,,3.3,1.8,2.7*3D
$GPVTG,161.2,T,,M,23.1,N,42.9,K*6B
$GPGSV,3,1,10,02,11,196,26,07,11,046,17,08,49,046,21,10,80,172,25*7F
$GPGSV,3,2,10,15,37,289,30,21,08,320,21,24,30,282,24,26,48,299,33*71
$GPGSV,3,3,10,27,18,047,,28,35,118,29*78
$GPGGA,140304.0,4011.078913,N,00824.325649,W,1,07,2.1,106.0,M,,,,*1D
$GPRMC,140304.0,A,4011.078913,N,00824.325649,W,24.3,161.0,260508,,,A*45
$GPGSA,A,3,08,10,28,255,255,255,255,,,,,,3.0,2.1,2.1*32
$GPVTG,161.0,T,,M,24.3,N,45.0,K*62
$GPGSV,3,1,10,02,11,196,26,07,11,046,18,08,49,046,23,10,80,172,25*72
$GPGSV,3,2,10,15,37,289,29,21,08,320,21,24,30,282,21,26,48,299,34*7B
$GPGSV,3,3,10,27,18,047,,28,35,118,28*79
$GPGGA,140305.0,4011.072642,N,00824.323125,W,1,07,3.4,105.5,M,,,,*14
$GPRMC,140305.0,A,4011.072642,N,00824.323125,W,23.1,162.9,260508,,,A*41
$GPGSA,A,3,08,10,15,24,26,28,255,,,,,,5.2,3.4,3.9*0F
$GPVTG,162.9,T,,M,23.1,N,42.8,K*62
$GPGSV,3,1,10,02,11,196,26,07,11,046,20,08,49,046,23,10,80,172,25*79
$GPGSV,3,2,10,15,37,289,35,21,08,320,21,24,30,282,21,26,48,299,34*76
$GPGSV,3,3,10,27,18,047,,28,35,118,30*70
$GPGGA,140306.0,4011.066617,N,00824.320876,W,1,08,2.4,105.0,M,,,,*15
$GPRMC,140306.0,A,4011.066617,N,00824.320876,W,21.1,166.8,260508,,,A*4C
$GPGSA,A,3,07,10,15,24,26,28,255,255,,,,,3.8,2.4,3.0*36
$GPVTG,166.8,T,,M,21.1,N,39.1,K*60
$GPGSV,3,1,10,02,11,196,26,07,11,046,24,08,49,046,23,10,80,172,25*7D
$GPGSV,3,2,10,15,37,289,32,21,08,320,21,24,30,282,21,26,48,299,35*70
$GPGSV,3,3,10,27,18,047,,28,35,118,30*70
$GPGGA,140307.0,4011.062430,N,00824.318845,W,1,08,2.4,104.5,M,,,,*18
$GPRMC,140307.0,A,4011.062430,N,00824.318845,W,15.3,162.9,260508,,,A*45
$GPGSA,A,3,07,10,15,24,26,28,255,255,,,,,3.8,2.4,2.9*3E
$GPVTG,162.9,T,,M,15.3,N,28.3,K*62
$GPGSV,3,1,10,02,11,196,26,07,11,046,24,08,49,046,24,10,80,172,25*7A
$GPGSV,3,2,10,15,37,289,34,21,08,320,21,24,30,282,20,26,48,299,34*76
$GPGSV,3,3,10,27,18,047,,28,35,118,29*78
$GPGGA,140308.0,4011.058844,N,00824.317225,W,1,08,2.1,104.0,M,,,,*12
$GPRMC,140308.0,A,4011.058844,N,00824.317225,W,13.6,164.0,260508,,,A*43
$GPGSA,A,3,07,08,10,15,24,26,28,255,,,,,3.5,2.1,2.8*0D
$GPVTG,164.0,T,,M,13.6,N,25.3,K*63
$GPGSV,3,1,10,02,11,196,26,07,11,046,23,08,49,046,29,10,80,172,25*70
$GPGSV,3,2,10,15,37,289,35,21,08,320,21,24,30,282,23,26,48,299,33*73
$GPGSV,3,3,10,27,18,047,,28,35,118,29*78
$GPGGA,140309.0,4011.055555,N,00824.315405,W,1,07,1.9,104.0,M,,,,*11
$GPRMC,140309.0,A,4011.055555,N,00824.315405,W,13.9,162.1,260508,,,A*4C
$GPGSA,A,3,07,08,10,15,24,26,255,,,,,,3.4,1.9,2.7*02
$GPVTG,162.1,T,,M,13.9,N,25.7,K*6F
$GPGSV,3,1,10,02,11,196,26,07,11,046,21,08,49,046,28,10,80,172,24*72
$GPGSV,3,2,10,15,37,289,35,21,08,320,21,24,30,282,24,26,48,299,34*73
$GPGSV,3,3,10,27,18,047,,28,35,118,29*78
$GPGGA,140310.0,4011.051668,N,00824.313584,W,1,07,2.0,103.5,M,,,,*16
$GPRMC,140310.0,A,4011.051668,N,00824.313584,W,15.7,160.8,260508,,,A*40
$GPGSA,A,3,07,08,10,15,24,26,255,,,,,,3.4,2.0,2.8*07
$GPVTG,160.8,T,,M,15.7,N,29.0,K*67
$GPGSV,3,1,10,02,11,196,26,07,11,046,22,08,49,046,25,10,80,172,25*7D
$GPGSV,3,2,10,15,37,289,34,21,08,320,21,24,30,282,22,26,48,299,35*75
$GPGSV,3,3,10,27,18,047,,28,35,118,23*72
$GPGGA,140311.0,4011.046986,N,00824.311371,W,1,07,2.4,102.5,M,,,,*15
$GPRMC,140311.0,A,4011.046986,N,00824.311371,W,18.6,160.8,260508,,,A*4A
$GPGSA,A,3,07,08,10,15,24,26,28,,,,,,3.6,2.4,2.7*36
$GPVTG,160.8,T,,M,18.6,N,34.4,K*63
$GPGSV,3,1,10,02,11,196,26,07,11,046,22,08,49,046,25,10,80,172,25*7D
$GPGSV,3,2,10,15,37,289,22,21,08,320,21,24,30,282,22,26,48,299,25*73
$GPGSV,3,3,10,27,18,047,,28,35,118,21*70
$GPGGA,140312.0,4011.041811,N,00824.308847,W,1,07,1.6,102.0,M,,,,*1C
$GPRMC,140312.0,A,4011.041811,N,00824.308847,W,20.4,157.9,260508,,,A*4B
$GPGSA,A,3,10,15,26,28,255,255,255,,,,,,2.6,1.6,2.0*0A
$GPVTG,157.9,T,,M,20.4,N,37.8,K*60
$GPGSV,3,1,10,02,11,196,26,07,11,046,22,08,49,046,25,10,80,172,24*7C
$GPGSV,3,2,10,15,37,289,22,21,08,320,21,24,30,282,22,26,48,299,25*73
$GPGSV,3,3,10,27,18,047,,28,35,118,21*70
$GPGGA,140313.0,4011.036508,N,00824.305980,W,1,07,1.6,102.0,M,,,,*1F
$GPRMC,140313.0,A,4011.036508,N,00824.305980,W,20.7,157.1,260508,,,A*43
$GPGSA,A,3,10,15,255,255,255,255,255,,,,,,2.6,1.6,2.0*04
$GPVTG,157.1,T,,M,20.7,N,38.4,K*68
$GPGSV,3,1,10,02,11,196,,07,11,046,22,08,49,046,25,10,80,172,26*7A
$GPGSV,3,2,10,15,37,289,22,21,08,320,21,24,30,282,22,26,48,299,25*73
$GPGSV,3,3,10,27,18,047,,28,35,118,21*70
$GPGGA,140314.0,4011.031252,N,00824.303053,W,1,07,9.1,102.0,M,,,,*19
$GPRMC,140314.0,A,4011.031252,N,00824.303053,W,20.7,157.1,260508,,,A*4A
$GPGSA,A,3,10,255,255,255,255,255,255,,,,,,9.7,9.1,3.5*33
$GPVTG,157.1,T,,M,20.7,N,38.4,K*68
$GPGSV,3,1,10,02,11,196,16,07,11,046,22,08,49,046,25,10,80,172,26*7D
$GPGSV,3,2,10,15,37,289,22,21,08,320,21,24,30,282,22,26,48,299,26*70
$GPGSV,3,3,10,27,18,047,,28,35,118,21*70
$GPGGA,140315.0,4011.025999,N,00824.300172,W,1,07,10.5,102.0,M,,,,*2C
$GPRMC,140315.0,A,4011.025999,N,00824.300172,W,20.6,157.2,260508,,,A*41
$GPGSA,A,3,10,26,255,255,255,255,255,,,,,,10.5,10.5,0.9*0C
$GPVTG,157.2,T,,M,20.6,N,38.1,K*6F
$GPGSV,3,1,10,02,11,196,16,07,11,046,22,08,49,046,25,10,80,172,26*7D
$GPGSV,3,2,10,15,37,289,22,21,08,320,21,24,30,282,22,26,48,299,26*70
$GPGSV,3,3,10,27,18,047,,28,35,118,22*73
$GPGGA,140316.0,4011.020653,N,00824.297506,W,1,07,9.6,102.0,M,,,,*10
$GPRMC,140316.0,A,4011.020653,N,00824.297506,W,20.4,158.2,260508,,,A*4B
$GPGSA,A,3,10,28,255,255,255,255,255,,,,,,9.7,9.6,1.0*0B
$GPVTG,158.2,T,,M,20.4,N,37.9,K*65
$GPGSV,3,1,10,02,11,196,22,07,11,046,22,08,49,046,20,10,80,172,27*7E
$GPGSV,3,2,10,15,37,289,22,21,08,320,21,24,30,282,22,26,48,299,26*70
$GPGSV,3,3,10,27,18,047,,28,35,118,26*77
$GPGGA,140317.0,4011.016743,N,00824.294946,W,1,07,2.4,101.5,M,,,,*10
$GPRMC,140317.0,A,4011.016743,N,00824.294946,W,17.3,161.3,260508,,,A*4C
$GPGSA,A,3,08,10,15,28,255,255,255,,,,,,3.8,2.4,2.9*01
$GPVTG,161.3,T,,M,17.3,N,32.1,K*60
$GPGSV,3,1,10,02,11,196,21,07,11,046,22,08,49,046,20,10,80,172,26*7C
$GPGSV,3,2,10,15,37,289,21,21,08,320,21,24,30,282,18,26,48,299,20*7C
$GPGSV,3,3,10,27,18,047,,28,35,118,28*79
$GPGGA,140318.0,4011.015093,N,00824.293070,W,1,06,1.5,101.5,M,,,,*1E
$GPRMC,140318.0,A,4011.015093,N,00824.293070,W,11.8,166.2,260508,,,A*4A
$GPGSA,A,3,02,10,15,26,28,255,,,,,,,2.4,1.5,1.9*03
$GPVTG,166.2,T,,M,11.8,N,21.8,K*60
$GPGSV,3,1,10,02,11,196,22,07,11,046,22,08,49,046,20,10,80,172,26*7F
$GPGSV,3,2,10,15,37,289,22,21,08,320,21,24,30,282,18,26,48,299,20*7F
$GPGSV,3,3,10,27,18,047,,28,35,118,25*74
$GPGGA,140319.0,4011.012828,N,00824.292140,W,1,06,1.5,101.5,M,,,,*13
$GPRMC,140319.0,A,4011.012828,N,00824.292140,W,9.6,169.9,260508,,,A*74
$GPGSA,A,3,02,15,26,28,255,255,,,,,,,2.4,1.5,1.9*30
$GPVTG,169.9,T,,M,9.6,N,17.9,K*57
$GPGSV,3,1,10,02,11,196,21,07,11,046,22,08,49,046,20,10,80,172,26*7C
$GPGSV,3,2,10,15,37,289,22,21,08,320,21,24,30,282,16,26,48,299,20*71
$GPGSV,3,3,10,27,18,047,,28,35,118,29*78
$GPGGA,140320.0,4011.010032,N,00824.291964,W,1,07,1.9,101.5,M,,,,*18
$GPRMC,140320.0,A,4011.010032,N,00824.291964,W,9.7,175.8,260508,,,A*7F
$GPGSA,A,3,02,24,28,255,255,255,255,,,,,,2.7,1.9,2.0*33
$GPVTG,175.8,T,,M,9.7,N,18.0,K*5C
$GPGSV,3,1,10,02,11,196,24,07,11,046,22,08,49,046,20,10,80,172,25*7A
$GPGSV,3,2,10,15,37,289,22,21,08,320,21,24,30,282,16,26,48,299,20*71
$GPGSV,3,3,10,27,18,047,,28,35,118,25*74
$GPGGA,140321.0,4011.007675,N,00824.293241,W,1,07,1.3,101.5,M,,,,*1E
$GPRMC,140321.0,A,4011.007675,N,00824.293241,W,8.9,200.8,260508,,,A*7D
$GPGSA,A,3,02,08,10,28,255,255,255,,,,,,2.2,1.3,1.8*0A
$GPVTG,200.8,T,,M,8.9,N,16.4,K*58
$GPGSV,3,1,10,02,11,196,24,07,11,046,22,08,49,046,24,10,80,172,21*7A
$GPGSV,3,2,10,15,37,289,22,21,08,320,21,24,30,282,16,26,48,299,20*71
$GPGSV,3,3,10,27,18,047,,28,35,118,26*77
$GPGGA,140322.0,4011.005357,N,00824.294976,W,1,07,1.7,101.5,M,,,,*16
$GPRMC,140322.0,A,4011.005357,N,00824.294976,W,9.7,212.5,260508,,,A*70
$GPGSA,A,3,02,08,10,28,255,255,255,,,,,,3.2,1.7,2.7*03
$GPVTG,212.5,T,,M,9.7,N,18.0,K*53
$GPGSV,3,1,10,02,11,196,24,07,11,046,22,08,49,046,21,10,80,172,25*7B
$GPGSV,3,2,10,15,37,289,25,21,08,320,,24,30,282,16,26,48,299,23*76
$GPGSV,3,3,10,27,18,047,,28,35,118,20*71
$GPGGA,140323.0,4011.004658,N,00824.300016,W,1,07,1.5,101.5,M,,,,*1D
$GPRMC,140323.0,A,4011.004658,N,00824.300016,W,13.4,247.2,260508,,,A*46
$GPGSA,A,3,08,10,15,26,28,255,255,,,,,,3.0,1.5,2.6*32
$GPVTG,247.2,T,,M,13.4,N,24.8,K*6B
$GPGSV,3,1,10,02,11,196,23,07,11,046,22,08,49,046,21,10,80,172,25*7C
$GPGSV,3,2,10,15,37,289,25,21,08,320,,24,30,282,18,26,48,299,26*7D
$GPGSV,3,3,10,27,18,047,,28,35,118,20*71
$GPGGA,140324.0,4011.003044,N,00824.305895,W,1,07,1.4,101.0,M,,,,*14
$GPRMC,140324.0,A,4011.003044,N,00824.305895,W,16.2,250.7,260508,,,A*4B
$GPGSA,A,3,02,08,24,26,255,255,255,,,,,,2.8,1.4,2.4*01
$GPVTG,250.7,T,,M,16.2,N,30.0,K*66
$GPGSV,3,1,10,02,11,196,25,07,11,046,22,08,49,046,21,10,80,172,25*7A
$GPGSV,3,2,10,15,37,289,25,21,08,320,,24,30,282,18,26,48,299,26*7D
$GPGSV,3,3,10,27,18,047,,28,35,118,24*75
$GPGGA,140325.0,4011.000954,N,00824.313137,W,1,07,1.4,101.0,M,,,,*18
$GPRMC,140325.0,A,4011.000954,N,00824.313137,W,19.5,249.9,260508,,,A*49
$GPGSA,A,3,02,08,10,28,255,255,255,,,,,,2.6,1.4,2.2*00
$GPVTG,249.9,T,,M,19.5,N,36.2,K*6C
$GPGSV,3,1,10,02,11,196,22,07,11,046,22,08,49,046,24,10,80,172,27*7A
$GPGSV,3,2,10,15,37,289,23,21,08,320,,24,30,282,18,26,48,299,26*7B
$GPGSV,3,3,10,27,18,047,,28,35,118,25*74
$GPGGA,140326.0,4010.999156,N,00824.320861,W,1,07,1.3,101.0,M,,,,*14
$GPRMC,140326.0,A,4010.999156,N,00824.320861,W,22.1,252.2,260508,,,A*4F
$GPGSA,A,3,02,08,10,15,28,255,255,,,,,,2.5,1.3,2.1*31
$GPVTG,252.2,T,,M,22.1,N,41.0,K*63
$GPGSV,3,1,10,02,11,196,22,07,11,046,22,08,49,046,22,10,80,172,26*7D
$GPGSV,3,2,10,15,37,289,23,21,08,320,,24,30,282,18,26,48,299,28*75
$GPGSV,3,3,10,27,18,047,,28,35,118,22*73
$GPGGA,140327.0,4010.997089,N,00824.329436,W,1,07,1.6,101.0,M,,,,*1A
$GPRMC,140327.0,A,4010.997089,N,00824.329436,W,24.6,252.6,260508,,,A*41
$GPGSA,A,3,02,08,10,26,28,255,255,,,,,,3.0,1.6,2.6*37
$GPVTG,252.6,T,,M,24.6,N,45.6,K*64
$GPGSV,3,1,10,02,11,196,20,07,11,046,22,08,49,046,22,10,80,172,25*7C
$GPGSV,3,2,10,15,37,289,23,21,08,320,,24,30,282,18,26,48,299,28*75
$GPGSV,3,3,10,27,18,047,,28,35,118,20*71
$GPGGA,140328.0,4010.994813,N,00824.338494,W,1,07,1.5,101.0,M,,,,*16
$GPRMC,140328.0,A,4010.994813,N,00824.338494,W,25.7,252.6,260508,,,A*4E
$GPGSA,A,3,02,08,10,28,255,255,255,,,,,,2.9,1.5,2.4*08
$GPVTG,252.6,T,,M,25.7,N,47.6,K*66
$GPGSV,3,1,10,02,11,196,20,07,11,046,22,08,49,046,24,10,80,172,25*7A
$GPGSV,3,2,10,15,37,289,25,21,08,320,,24,30,282,18,26,48,299,26*7D
$GPGSV,3,3,10,27,18,047,,28,35,118,22*73
$GPGGA,140329.0,4010.992852,N,00824.348310,W,1,07,1.4,101.0,M,,,,*19
$GPRMC,140329.0,A,4010.992852,N,00824.348310,W,27.2,253.5,260508,,,A*45
$GPGSA,A,3,08,10,15,24,26,28,255,,,,,,2.6,1.4,2.2*04
$GPVTG,253.5,T,,M,27.2,N,50.4,K*67
$GPGSV,3,1,10,02,11,196,22,07,11,046,22,08,49,046,24,10,80,172,24*79
$GPGSV,3,2,10,15,37,289,25,21,08,320,,24,30,282,18,26,48,299,24*7F
$GPGSV,3,3,10,27,18,047,,28,35,118,23*72
$GPGGA,140330.0,4010.990742,N,00824.357966,W,1,07,1.3,100.5,M,,,,*1B
$GPRMC,140330.0,A,4010.990742,N,00824.357966,W,28.0,252.9,260508,,,A*44
$GPGSA,A,3,02,10,26,28,255,255,255,,,,,,2.4,1.3,2.0*0B
$GPVTG,252.9,T,,M,28.0,N,51.8,K*6A
$GPGSV,3,1,10,02,11,196,22,07,11,046,22,08,49,046,20,10,80,172,26*7F
$GPGSV,3,2,10,15,37,289,25,21,08,320,,24,30,282,18,26,48,299,24*7F
$GPGSV,3,3,10,27,18,047,,28,35,118,21*70
$GPGGA,140331.0,4010.988230,N,00824.367874,W,1,07,1.4,100.5,M,,,,*15
$GPRMC,140331.0,A,4010.988230,N,00824.367874,W,28.2,252.6,260508,,,A*40
$GPGSA,A,3,02,08,10,28,255,255,255,,,,,,2.4,1.4,1.9*0A
$GPVTG,252.6,T,,M,28.2,N,52.2,K*6E
$GPGSV,3,1,10,02,11,196,22,07,11,046,,08,49,046,20,10,80,172,27*7E
$GPGSV,3,2,10,15,37,289,25,21,08,320,,24,30,282,18,26,48,299,25*7E
$GPGSV,3,3,10,27,18,047,,28,35,118,23*72
$GPGGA,140332.0,4010.985841,N,00824.378123,W,1,07,1.4,100.0,M,,,,*17
$GPRMC,140332.0,A,4010.985841,N,00824.378123,W,29.0,253.3,260508,,,A*40
$GPGSA,A,3,02,10,26,28,255,255,255,,,,,,2.4,1.4,1.9*06
$GPVTG,253.3,T,,M,29.0,N,53.7,K*6D
$GPGSV,3,1,10,02,11,196,21,07,11,046,,08,49,046,20,10,80,172,27*7D
$GPGSV,3,2,10,15,37,289,25,21,08,320,,24,30,282,18,26,48,299,25*7E
$GPGSV,3,3,10,27,18,047,,28,35,118,23*72
$GPGGA,140333.0,4010.983448,N,00824.388247,W,1,07,1.7,100.0,M,,,,*18
$GPRMC,140333.0,A,4010.983448,N,00824.388247,W,29.1,253.3,260508,,,A*4D
$GPGSA,A,3,02,10,255,255,255,255,255,,,,,,2.7,1.7,2.1*03
$GPVTG,253.3,T,,M,29.1,N,53.8,K*63
$GPGSV,3,1,10,02,11,196,21,07,11,046,,08,49,046,23,10,80,172,26*7F
$GPGSV,3,2,10,15,37,289,21,21,08,320,,24,30,282,16,26,48,299,24*75
$GPGSV,3,3,10,27,18,047,,28,35,118,21*70
$GPGGA,140334.0,4010.980971,N,00824.398059,W,1,07,1.3,100.0,M,,,,*13
$GPRMC,140334.0,A,4010.980971,N,00824.398059,W,28.3,252.6,260508,,,A*45
$GPGSA,A,3,02,08,10,15,24,26,28,,,,,,2.2,1.3,1.7*31
$GPVTG,252.6,T,,M,28.3,N,52.3,K*6E
$GPGSV,3,1,10,02,11,196,21,07,11,046,,08,49,046,22,10,80,172,24*7C
$GPGSV,3,2,10,15,37,289,21,21,08,320,,24,30,282,16,26,48,299,24*75
$GPGSV,3,3,10,27,18,047,,28,35,118,22*73
$GPGGA,140335.0,4010.978625,N,00824.407991,W,1,07,1.2,100.0,M,,,,*16
$GPRMC,140335.0,A,4010.978625,N,00824.407991,W,28.5,253.3,260508,,,A*43
$GPGSA,A,3,08,10,28,255,255,255,255,,,,,,2.2,1.2,1.8*3B
$GPVTG,253.3,T,,M,28.5,N,52.7,K*68
$GPGSV,3,1,10,02,11,196,21,07,10,046,,08,49,046,25,10,80,172,25*7B
$GPGSV,3,2,10,15,37,289,20,21,08,320,,24,30,282,16,26,48,299,24*74
$GPGSV,3,3,10,27,18,047,,28,35,118,22*73
$GPGGA,140336.0,4010.976306,N,00824.417808,W,1,07,1.2,100.0,M,,,,*1F
$GPRMC,140336.0,A,4010.976306,N,00824.417808,W,27.8,253.8,260508,,,A*43
$GPGSA,A,3,08,10,15,24,255,255,255,,,,,,2.1,1.2,1.8*02
$GPVTG,253.8,T,,M,27.8,N,51.4,K*61
$GPGSV,3,1,10,02,11,196,21,07,10,046,,08,49,046,23,10,80,172,24*7C
$GPGSV,3,2,10,15,37,289,20,21,08,320,,24,30,282,16,26,48,299,27*77
$GPGSV,3,3,10,27,18,047,,28,35,118,22*73
$GPGGA,140337.0,4010.973975,N,00824.427233,W,1,07,1.8,100.0,M,,,,*1E
$GPRMC,140337.0,A,4010.973975,N,00824.427233,W,26.7,251.8,260508,,,A*44
$GPGSA,A,3,08,10,24,26,28,255,255,,,,,,3.6,1.8,3.2*3E
$GPVTG,251.8,T,,M,26.7,N,49.4,K*64
$GPGSV,3,1,10,02,11,196,21,07,10,046,,08,49,046,21,10,80,172,24*7E
$GPGSV,3,2,10,15,37,289,20,21,08,320,,24,30,282,16,26,49,299,27*76
$GPGSV,3,3,10,27,18,047,,28,35,118,20*71
$GPGGA,140338.0,4010.971762,N,00824.436235,W,1,07,1.4,99.5,M,,,,*25
$GPRMC,140338.0,A,4010.971762,N,00824.436235,W,25.6,252.0,260508,,,A*4E
$GPGSA,A,3,02,08,10,28,255,255,255,,,,,,2.5,1.4,2.1*00
$GPVTG,252.0,T,,M,25.6,N,47.4,K*63
$GPGSV,3,1,10,02,11,196,23,07,10,046,,08,49,046,25,10,80,172,23*7F
$GPGSV,3,2,10,15,37,289,28,21,08,320,,24,30,282,16,26,49,299,25*7C
$GPGSV,3,3,10,27,18,047,,28,35,118,22*73
$GPGGA,140339.0,4010.970135,N,00824.444221,W,1,07,1.6,99.5,M,,,,*23
$GPRMC,140339.0,A,4010.970135,N,00824.444221,W,21.7,253.0,260508,,,A*4E
$GPGSA,A,3,02,08,10,15,26,28,255,,,,,,2.9,1.6,2.4*0B
$GPVTG,253.0,T,,M,21.7,N,40.3,K*67
$GPGSV,3,1,10,02,11,196,23,07,10,046,,08,49,046,22,10,80,172,26*7D
$GPGSV,3,2,10,15,37,289,22,21,08,320,,24,30,282,16,26,49,299,37*75
$GPGSV,3,3,10,27,18,047,,28,35,118,21*70
$GPGGA,140340.0,4010.968943,N,00824.452338,W,1,07,2.7,99.5,M,,,,*21
$GPRMC,140340.0,A,4010.968943,N,00824.452338,W,20.9,253.7,260508,,,A*46
$GPGSA,A,3,02,08,10,15,26,28,255,,,,,,5.1,2.7,4.3*07
$GPVTG,253.7,T,,M,20.9,N,38.7,K*64
$GPGSV,3,1,10,02,11,196,25,07,10,046,,08,49,046,20,10,80,172,25*7A
$GPGSV,3,2,10,15,37,289,22,21,08,320,,24,30,282,15,26,49,299,37*76
$GPGSV,3,3,10,27,18,047,,28,35,118,24*75
$GPGGA,140341.0,4010.967415,N,00824.459646,W,1,07,2.5,99.5,M,,,,*24
$GPRMC,140341.0,A,4010.967415,N,00824.459646,W,20.4,253.6,260508,,,A*4D
$GPGSA,A,3,02,08,10,28,255,255,255,,,,,,4.5,2.5,3.7*03
$GPVTG,253.6,T,,M,20.4,N,37.9,K*69
$GPGSV,3,1,10,02,11,196,27,07,10,046,,08,49,046,20,10,80,172,24*79
$GPGSV,3,2,10,15,37,289,22,21,08,320,,24,30,282,15,26,49,299,37*76
$GPGSV,3,3,10,27,18,047,,28,35,118,23*72
$GPGGA,140342.0,4010.965810,N,00824.466757,W,1,07,2.0,99.0,M,,,,*21
$GPRMC,140342.0,A,4010.965810,N,00824.466757,W,19.6,255.8,260508,,,A*48
$GPGSA,A,3,02,08,10,28,255,255,255,,,,,,3.8,2.0,3.2*09
$GPVTG,255.8,T,,M,19.6,N,36.2,K*63
$GPGSV,3,1,10,02,11,196,25,07,10,046,,08,49,046,20,10,80,172,24*7B
$GPGSV,3,2,10,15,37,289,28,21,08,320,13,24,30,282,24,26,49,299,21*7B
$GPGSV,3,3,10,27,18,047,,28,35,118,26*77
$GPGGA,140343.0,4010.964030,N,00824.472988,W,1,07,1.4,99.0,M,,,,*25
$GPRMC,140343.0,A,4010.964030,N,00824.472988,W,16.5,252.2,260508,,,A*4A
$GPGSA,A,3,02,08,10,15,24,26,28,,,,,,2.6,1.4,2.2*34
$GPVTG,252.2,T,,M,16.5,N,30.6,K*60
$GPGSV,3,1,10,02,11,196,23,07,10,046,,08,49,046,20,10,80,172,26*7F
$GPGSV,3,2,10,15,37,289,31,21,08,320,13,24,30,282,30,26,49,299,37*71
$GPGSV,3,3,10,27,18,047,,28,35,118,26*77
$GPGGA,140344.0,4010.963039,N,00824.478797,W,1,07,3.1,99.0,M,,,,*21
$GPRMC,140344.0,A,4010.963039,N,00824.478797,W,13.3,250.2,260508,,,A*48
$GPGSA,A,3,02,10,15,24,26,28,255,,,,,,5.1,3.1,4.0*0D
$GPVTG,250.2,T,,M,13.3,N,24.7,K*65
$GPGSV,3,1,10,02,11,196,25,07,10,046,,08,49,046,20,10,80,172,24*7B
$GPGSV,3,2,10,15,37,289,28,21,08,320,13,24,30,282,29,26,49,299,32*74
$GPGSV,3,3,10,27,18,047,,28,35,118,30*70
$GPGGA,140345.0,4010.962458,N,00824.482413,W,1,07,2.4,98.5,M,,,,*28
$GPRMC,140345.0,A,4010.962458,N,00824.482413,W,9.2,247.2,260508,,,A*7D
$GPGSA,A,3,02,10,15,24,26,28,255,,,,,,4.2,2.4,3.4*08
$GPVTG,247.2,T,,M,9.2,N,17.0,K*5E
$GPGSV,3,1,10,02,11,196,23,07,10,046,,08,49,046,20,10,80,172,25*7C
$GPGSV,3,2,10,15,37,289,28,21,08,320,13,24,30,282,27,26,49,299,28*71
$GPGSV,3,3,10,27,18,047,,28,35,118,30*70
$GPGGA,140346.0,4010.961510,N,00824.485671,W,1,07,2.5,98.5,M,,,,*25
$GPRMC,140346.0,A,4010.961510,N,00824.485671,W,8.6,247.2,260508,,,A*74
$GPGSA,A,3,02,10,15,24,26,28,255,,,,,,4.2,2.5,3.3*0E
$GPVTG,247.2,T,,M,8.6,N,15.9,K*50
$GPGSV,3,1,10,02,11,196,23,07,10,046,,08,49,046,20,10,80,172,24*7D
$GPGSV,3,2,10,15,37,289,32,21,08,320,21,24,30,282,30,26,49,299,32*76
$GPGSV,3,3,10,27,18,047,,28,35,118,31*71
$GPGGA,140347.0,4010.960693,N,00824.489232,W,1,07,2.6,98.5,M,,,,*21
$GPRMC,140347.0,A,4010.960693,N,00824.489232,W,10.5,254.0,260508,,,A*49
$GPGSA,A,3,10,15,24,26,28,255,255,,,,,,4.4,2.6,3.6*3E
$GPVTG,254.0,T,,M,10.5,N,19.4,K*6B
$GPGSV,3,1,10,02,11,196,23,07,10,046,,08,49,046,27,10,80,172,25*7B
$GPGSV,3,2,10,15,37,289,36,21,08,320,21,24,30,282,31,26,49,299,34*75
$GPGSV,3,3,10,27,18,047,,28,35,118,25*74
$GPGGA,140348.0,4010.959713,N,00824.494412,W,1,07,1.7,98.5,M,,,,*27
$GPRMC,140348.0,A,4010.959713,N,00824.494412,W,14.4,257.6,260508,,,A*4D
$GPGSA,A,3,02,08,10,15,24,26,28,,,,,,3.6,1.7,3.2*37
$GPVTG,257.6,T,,M,14.4,N,26.7,K*64
$GPGSV,3,1,10,02,11,196,23,07,10,046,,08,49,046,26,10,80,172,21*7E
$GPGSV,3,2,10,15,37,289,37,21,08,320,22,24,30,282,34,26,49,299,37*71
$GPGSV,3,3,10,27,18,047,,28,35,118,25*74
$GPGGA,140349.0,4010.959305,N,00824.500442,W,1,07,2.1,98.5,M,,,,*29
$GPRMC,140349.0,A,4010.959305,N,00824.500442,W,17.2,264.8,260508,,,A*4D
$GPGSA,A,3,02,08,10,15,24,26,28,,,,,,4.4,2.1,3.8*3D
$GPVTG,264.8,T,,M,17.2,N,31.9,K*67
$GPGSV,3,1,10,02,11,196,23,07,10,046,,08,49,046,27,10,80,172,24*7A
$GPGSV,3,2,10,15,37,289,37,21,08,320,22,24,30,282,32,26,49,299,38*78
$GPGSV,3,3,10,27,18,047,,28,35,118,22*73
$GPGGA,140350.0,4010.959320,N,00824.507624,W,1,07,2.2,98.5,M,,,,*20
$GPRMC,140350.0,A,4010.959320,N,00824.507624,W,19.8,271.0,260508,,,A*4F
$GPGSA,A,3,02,08,10,15,24,26,28,,,,,,4.3,2.2,3.7*36
$GPVTG,271.0,T,,M,19.8,N,36.6,K*67
$GPGSV,3,1,10,02,11,196,22,07,10,046,,08,48,046,28,10,80,172,25*74
$GPGSV,3,2,10,15,37,289,39,21,08,320,22,24,30,282,27,26,49,299,40*7D
$GPGSV,3,3,10,27,18,047,,28,35,118,26*77
$GPGGA,140351.0,4010.959506,N,00824.515856,W,1,07,2.3,97.5,M,,,,*25
$GPRMC,140351.0,A,4010.959506,N,00824.515856,W,22.0,272.5,260508,,,A*42
$GPGSA,A,3,02,08,10,15,24,26,28,,,,,,4.4,2.3,3.7*30
$GPVTG,272.5,T,,M,22.0,N,40.8,K*6E
$GPGSV,3,1,10,02,11,196,24,07,10,046,,08,48,046,29,10,80,172,26*70
$GPGSV,3,2,10,15,37,289,38,21,08,320,22,24,30,282,29,26,49,299,39*7C
$GPGSV,3,3,10,27,18,047,,28,35,118,27*76
$GPGGA,140352.0,4010.959682,N,00824.524894,W,1,07,2.4,97.0,M,,,,*27
$GPRMC,140352.0,A,4010.959682,N,00824.524894,W,25.7,272.4,260508,,,A*43
$GPGSA,A,3,02,08,10,15,24,26,28,,,,,,4.5,2.4,3.8*39
$GPVTG,272.4,T,,M,25.7,N,47.7,K*67
$GPGSV,3,1,10,02,11,196,24,07,10,046,,08,48,046,28,10,80,172,26*71
$GPGSV,3,2,10,15,37,289,38,21,08,320,22,24,30,282,30,26,49,299,39*74
$GPGSV,3,3,10,27,18,047,,28,35,118,24*75
$GPGGA,140353.0,4010.959836,N,00824.535410,W,1,07,2.5,96.5,M,,,,*22
$GPRMC,140353.0,A,4010.959836,N,00824.535410,W,29.2,272.5,260508,,,A*4B
$GPGSA,A,3,02,08,10,15,24,26,28,,,,,,4.5,2.5,3.8*38
$GPVTG,272.5,T,,M,29.2,N,54.0,K*6A
$GPGSV,3,1,10,02,11,196,23,07,10,046,20,08,48,046,23,10,80,172,26*7F
$GPGSV,3,2,10,15,37,289,38,21,08,320,22,24,30,282,30,26,49,299,40*7A
$GPGSV,3,3,10,27,18,047,,28,35,118,24*75
$GPGGA,140354.0,4010.960324,N,00824.546625,W,1,07,3.3,95.5,M,,,,*23
$GPRMC,140354.0,A,4010.960324,N,00824.546625,W,30.2,273.1,260508,,,A*43
$GPGSA,A,3,02,08,10,15,24,26,28,,,,,,5.4,3.3,4.2*32
$GPVTG,273.1,T,,M,30.2,N,55.9,K*6F
$GPGSV,3,1,10,02,11,196,20,07,10,046,20,08,48,046,22,10,80,172,23*78
$GPGSV,3,2,10,15,37,289,38,21,08,320,22,24,30,282,30,26,49,299,40*7A
$GPGSV,3,3,10,27,18,047,,28,35,118,25*74
$GPGGA,140355.0,4010.960975,N,00824.557980,W,1,07,4.2,95.5,M,,,,*2A
$GPRMC,140355.0,A,4010.960975,N,00824.557980,W,32.1,273.9,260508,,,A*45
$GPGSA,A,3,02,08,10,15,24,26,28,,,,,,6.4,4.2,4.9*3C
$GPVTG,273.9,T,,M,32.1,N,59.5,K*66
$GPGSV,3,1,10,02,11,196,20,07,10,046,20,08,48,046,21,10,80,172,23*7B
$GPGSV,3,2,10,15,37,289,38,21,08,320,22,24,30,282,30,26,49,299,39*74
$GPGSV,3,3,10,27,18,047,,28,35,118,27*76
$GPGGA,140356.0,4010.961681,N,00824.570171,W,1,07,4.4,95.0,M,,,,*2C
$GPRMC,140356.0,A,4010.961681,N,00824.570171,W,34.3,274.4,260508,,,A*4E
$GPGSA,A,3,08,10,15,24,26,28,255,,,,,,6.7,4.4,5.0*01
$GPVTG,274.4,T,,M,34.3,N,63.5,K*61
$GPGSV,3,1,10,02,11,196,20,07,10,046,21,08,48,046,20,10,80,172,26*7E
$GPGSV,3,2,10,15,37,289,37,21,08,320,22,24,30,282,28,26,49,299,39*72
$GPGSV,3,3,10,27,18,047,,28,35,118,25*74
$GPGGA,140357.0,4010.962906,N,00824.583111,W,1,08,2.5,94.5,M,,,,*28
$GPRMC,140357.0,A,4010.962906,N,00824.583111,W,36.4,276.2,260508,,,A*47
$GPGSA,A,3,02,07,08,10,15,24,26,28,,,,,3.7,2.5,2.8*3B
$GPVTG,276.2,T,,M,36.4,N,67.4,K*65
$GPGSV,3,1,10,02,11,196,21,07,10,046,21,08,48,046,28,10,80,172,29*78
$GPGSV,3,2,10,15,37,289,38,21,08,320,22,24,30,282,31,26,49,299,39*75
$GPGSV,3,3,10,27,18,047,,28,35,118,26*77
$GPGGA,140358.0,4010.963927,N,00824.597142,W,1,08,2.6,93.5,M,,,,*22
$GPRMC,140358.0,A,4010.963927,N,00824.597142,W,38.0,275.2,260508,,,A*40
$GPGSA,A,3,02,08,10,15,24,26,28,255,,,,,3.8,2.6,2.8*02
$GPVTG,275.2,T,,M,38.0,N,70.3,K*6D
$GPGSV,3,1,10,02,11,196,20,07,10,046,21,08,48,046,28,10,80,172,29*79
$GPGSV,3,2,10,15,37,289,38,21,08,320,22,24,30,282,31,26,49,299,39*75
$GPGSV,3,3,10,27,18,047,,28,35,118,27*76
$GPGGA,140359.0,4010.964910,N,00824.611496,W,1,08,2.7,93.0,M,,,,*25
$GPRMC,140359.0,A,4010.964910,N,00824.611496,W,39.1,275.0,260508,,,A*41
$GPGSA,A,3,02,08,10,15,24,26,28,255,,,,,4.0,2.7,3.0*05
$GPVTG,275.0,T,,M,39.1,N,72.3,K*6D
$GPGSV,3,1,10,02,11,196,22,07,10,046,21,08,48,046,28,10,80,172,29*7B
$GPGSV,3,2,10,15,37,289,39,21,08,320,22,24,30,282,31,26,49,299,39*74
$GPGSV,3,3,10,27,18,047,,28,35,118,26*77
$GPGGA,140400.0,4010.966190,N,00824.626261,W,1,08,2.8,93.0,M,,,,*29
$GPRMC,140400.0,A,4010.966190,N,00824.626261,W,40.3,276.1,260508,,,A*4C
$GPGSA,A,3,02,08,10,15,24,26,28,255,,,,,4.2,2.8,3.1*09
$GPVTG,276.1,T,,M,40.3,N,74.6,K*60
$GPGSV,3,1,10,02,11,196,24,07,10,046,21,08,48,046,25,10,80,172,29*70
$GPGSV,3,2,10,15,37,289,39,21,08,320,22,24,30,282,31,26,49,299,39*74
$GPGSV,3,3,10,27,18,047,,28,35,118,28*79
$GPGGA,140401.0,4010.967550,N,00824.641233,W,1,08,3.7,92.5,M,,,,*2D
$GPRMC,140401.0,A,4010.967550,N,00824.641233,W,40.7,277.5,260508,,,A*43
$GPGSA,A,3,02,08,10,15,24,26,28,255,,,,,5.6,3.7,4.2*06
$GPVTG,277.5,T,,M,40.7,N,75.4,K*62
$GPGSV,3,1,10,02,11,196,27,07,10,046,21,08,48,046,25,10,80,172,29*73
$GPGSV,3,2,10,15,37,289,38,21,08,320,22,24,30,282,30,26,49,299,40*7A
